[
  {
    "id": "anniston-museums-and-gardens",
    "name": "Anniston Museums and Gardens",
    "address": "800 Museum Dr",
    "city": "Anniston",
    "state": "AL",
    "country": "USA",
    "zip": "36206",
    "phone": "(256) 237- 6766",
    "website": "https://www.exploreamag.org/",
    "admittancePolicy": "Two adults and up to six children.",
    "proofOfResidenceRequired": false,
    "latitude": 33.6947434,
    "longitude": -85.8224436,
    "discountType": "free",
    "specialNotes": ""
  },
  {
    "id": "exploreum-science-center",
    "name": "Exploreum Science Center",
    "address": "65 Government Street",
    "city": "Mobile",
    "state": "AL",
    "country": "USA",
    "zip": "36602",
    "phone": "(251) 208- 6893",
    "website": "https://www.exploreum.com/",
    "admittancePolicy": "Four people, one of whom must be a cardholder. Free admission limited to permanent galleries only. Fees will be assessed for PCI Digital Dome Theater and certain traveling exhibits. Photo ID required for cardholder.",
    "proofOfResidenceRequired": true,
    "latitude": 30.6900491,
    "longitude": -88.0398566,
    "discountType": "free",
    "specialNotes": ""
  },
  {
    "id": "mary-g-hardin-center-for-cultural-arts",
    "name": "Mary G. Hardin Center for Cultural Arts",
    "address": "501 Broad St",
    "city": "Gadsden",
    "state": "AL",
    "country": "USA",
    "zip": "35901",
    "phone": "(256) 543- 2787",
    "website": "https://culturalarts.com",
    "admittancePolicy": "All family members residing in the same household.",
    "proofOfResidenceRequired": false,
    "latitude": 34.014037,
    "longitude": -86.0050212,
    "discountType": "free",
    "specialNotes": ""
  },
  {
    "id": "mcwane-science-center",
    "name": "McWane Science Center",
    "address": "200 19th St N",
    "city": "Birmingham",
    "state": "AL",
    "country": "USA",
    "zip": "35203",
    "phone": "(205) 714- 8300",
    "website": "https://www.mcwane.org",
    "admittancePolicy": "Two adults and up to two children under the age of 18. Members of Anniston Museum and Gardens, Mary G. Hardin Center for Cultural Arts and Southern Museum of Flight receive 50% off Adventure Hall tickets.",
    "proofOfResidenceRequired": true,
    "latitude": 33.5148183,
    "longitude": -86.8084368,
    "discountType": "free",
    "specialNotes": ""
  },
  {
    "id": "southern-museum-of-flight",
    "name": "Southern Museum of Flight",
    "address": "4343 73rd Street North",
    "city": "Birmingham",
    "state": "AL",
    "country": "USA",
    "zip": "35206",
    "phone": "(205) 833- 8226",
    "website": "http://www.southernmuseumofflight.org",
    "admittancePolicy": "Blood relatives or related through marriage.",
    "proofOfResidenceRequired": false,
    "latitude": 33.5634894,
    "longitude": -86.7380614,
    "discountType": "free",
    "specialNotes": ""
  },
  {
    "id": "u-s-space-rocket-center",
    "name": "U.S. Space & Rocket Center",
    "address": "1 Tranquility Base",
    "city": "Huntsville",
    "state": "AL",
    "country": "USA",
    "zip": "35805",
    "phone": "(800) 637- 7223",
    "website": "https://rocketcenter.com",
    "admittancePolicy": "One adult and up to two children under 18. Free admission to general and traveling exhibit areas and public simulators; does not include Intuitive Planetarium.",
    "proofOfResidenceRequired": true,
    "latitude": 34.7113614,
    "longitude": -86.6546111,
    "discountType": "free",
    "specialNotes": ""
  },
  {
    "id": "anchorage-museum-at-rasmuson-center",
    "name": "Anchorage Museum at Rasmuson Center",
    "address": "625 C St",
    "city": "Anchorage",
    "state": "AK",
    "country": "USA",
    "zip": "99501",
    "phone": "(907) 929- 9200",
    "website": "https://www.anchoragemuseum.org",
    "admittancePolicy": "Adult cardholder and all of their children 17 and younger.",
    "proofOfResidenceRequired": false,
    "latitude": 61.2159911,
    "longitude": -149.8846851,
    "discountType": "free",
    "specialNotes": ""
  },
  {
    "id": "arizona-museum-of-natural-history",
    "name": "Arizona Museum of Natural History",
    "address": "53 N MacDonald",
    "city": "Mesa",
    "state": "AZ",
    "country": "USA",
    "zip": "85201- 7325",
    "phone": "(480) 644- 2230",
    "website": "https://www.arizonamuseumofnaturalhistory.org/",
    "admittancePolicy": "Free general admission for one adult cardholder and one additional guest.",
    "proofOfResidenceRequired": false,
    "latitude": 33.4166859,
    "longitude": -111.8336575,
    "discountType": "free",
    "specialNotes": ""
  },
  {
    "id": "arizona-science-center",
    "name": "Arizona Science Center",
    "address": "600 E Washington St",
    "city": "Phoenix",
    "state": "AZ",
    "country": "USA",
    "zip": "85004",
    "phone": "(602) 716- 2000",
    "website": "https://www.azscience.org/",
    "admittancePolicy": "Free general admission for one adult cardholder and up to three guests.",
    "proofOfResidenceRequired": false,
    "latitude": 33.44867,
    "longitude": -112.0666392,
    "discountType": "free",
    "specialNotes": ""
  },
  {
    "id": "flandrau-science-center-planetarium",
    "name": "Flandrau Science Center & Planetarium",
    "address": "1601 East University Boulevard",
    "city": "Tucson",
    "state": "AZ",
    "country": "USA",
    "zip": "85721",
    "phone": "(520) 621- 4516",
    "website": "https://www.flandrau.org/",
    "admittancePolicy": "Free admission to exhibits for two adults and up to four children under 18.",
    "proofOfResidenceRequired": false,
    "latitude": 32.2324151,
    "longitude": -110.9477169,
    "discountType": "free",
    "specialNotes": ""
  },
  {
    "id": "kitt-peak-national-observatory-visitor-center",
    "name": "Kitt Peak National Observatory Visitor Center",
    "address": "State Route 386",
    "city": "Tucson",
    "state": "AZ",
    "country": "USA",
    "zip": "85726",
    "phone": "(520) 318- 8726",
    "website": "https://kpno.noirlab.edu/",
    "admittancePolicy": "Free regular daytime tours for immediate family members. Ten percent gift shop discount.",
    "proofOfResidenceRequired": false,
    "latitude": 32.1778892,
    "longitude": -110.9745032,
    "discountType": "free",
    "specialNotes": ""
  },
  {
    "id": "lowell-observatory",
    "name": "Lowell Observatory",
    "address": "1400 W Mars Hill Rd",
    "city": "Flagstaff",
    "state": "AZ",
    "country": "USA",
    "zip": "86001",
    "phone": "(928) 774- 3358",
    "website": "https://lowell.edu",
    "admittancePolicy": "Two adults and up to four children under 18.",
    "proofOfResidenceRequired": false,
    "latitude": 35.202945,
    "longitude": -111.6646529,
    "discountType": "free",
    "specialNotes": ""
  },
  {
    "id": "meteor-crater-barringer-space-museum",
    "name": "Meteor Crater & Barringer Space Museum",
    "address": "I40",
    "city": "Exit 233",
    "state": "Winslow",
    "country": "USA",
    "zip": "",
    "phone": "(928) 289- 5898",
    "website": "https://meteorcrater.com/",
    "admittancePolicy": "Free admission for up to three family members or guests.",
    "proofOfResidenceRequired": false,
    "latitude": 35.0275,
    "longitude": -111.0225,
    "discountType": "free",
    "specialNotes": ""
  },
  {
    "id": "science-vortex-of-the-verde-valley",
    "name": "Science Vortex of the Verde Valley",
    "address": "301 N. Willard St. Room 202",
    "city": "Cottonwood",
    "state": "AZ",
    "country": "USA",
    "zip": "86326",
    "phone": "(928) 225- 7830",
    "website": "https://sciencevortex.org/",
    "admittancePolicy": "",
    "proofOfResidenceRequired": false,
    "latitude": 34.7395,
    "longitude": -112.0077,
    "discountType": "free",
    "specialNotes": ""
  },
  {
    "id": "mid-america-science-museum",
    "name": "Mid-America Science Museum",
    "address": "500 Mid-America Boulevard",
    "city": "Hot Springs",
    "state": "AR",
    "country": "USA",
    "zip": "71913",
    "phone": "(501) 767- 3461",
    "website": "https://midamericamuseum.org",
    "admittancePolicy": "Up to five people; at least one guest must be named on membership card. Photo ID required.",
    "proofOfResidenceRequired": true,
    "latitude": 34.5147672,
    "longitude": -93.1163642,
    "discountType": "free",
    "specialNotes": ""
  },
  {
    "id": "museum-of-discovery",
    "name": "Museum of Discovery",
    "address": "500 President Clinton Ave Ste 150",
    "city": "Little Rock",
    "state": "AR",
    "country": "USA",
    "zip": "",
    "phone": "(501) 396- 7050",
    "website": "https://museumofdiscovery.org",
    "admittancePolicy": "Up to two adults and three children within same household; at least one must be named on membership card. Membership expiration date information is required.",
    "proofOfResidenceRequired": true,
    "latitude": 34.7475935,
    "longitude": -92.2647132,
    "discountType": "free",
    "specialNotes": ""
  },
  {
    "id": "scott-family-amazeum",
    "name": "Scott Family Amazeum",
    "address": "1009 Museum Way",
    "city": "Bentonville",
    "state": "AR",
    "country": "USA",
    "zip": "72712",
    "phone": "(479) 696- 9280",
    "website": "https://www.amazeum.org/",
    "admittancePolicy": "Up to five people; one must be named on membership card.",
    "proofOfResidenceRequired": true,
    "latitude": 36.3797662,
    "longitude": -94.1998435,
    "discountType": "free",
    "specialNotes": ""
  },
  {
    "id": "bay-area-discovery-museum",
    "name": "Bay Area Discovery Museum",
    "address": "557 McReynolds Rd",
    "city": "Sausalito",
    "state": "CA",
    "country": "USA",
    "zip": "94965",
    "phone": "(415) 339- 3936",
    "website": "https://bayareadiscoverymuseum.org/",
    "admittancePolicy": "One adult and one child. Excludes fee-based special events.",
    "proofOfResidenceRequired": true,
    "latitude": 37.8357085,
    "longitude": -122.4770557,
    "discountType": "free",
    "specialNotes": ""
  },
  {
    "id": "science",
    "name": "Science",
    "address": "2018 Chester Ave",
    "city": "Bakersfield",
    "state": "CA",
    "country": "USA",
    "zip": "93301",
    "phone": "(661) 324- 6350",
    "website": "https://www.buenavistamuseum.org/",
    "admittancePolicy": "Two adults and six children.",
    "proofOfResidenceRequired": false,
    "latitude": 35.377613,
    "longitude": -119.0186954,
    "discountType": "free",
    "specialNotes": ""
  },
  {
    "id": "california-science-center",
    "name": "California Science Center",
    "address": "700 Exposition Park Drive",
    "city": "Los Angeles",
    "state": "CA",
    "country": "USA",
    "zip": "90037",
    "phone": "(323) 724- 3623",
    "website": "https://californiasciencecenter.org/",
    "admittancePolicy": "Unlimited. Museum is free; Passport visitors receive a 10% discount on museum store purchases.",
    "proofOfResidenceRequired": false,
    "latitude": 34.0159757,
    "longitude": -118.286287,
    "discountType": "free",
    "specialNotes": ""
  },
  {
    "id": "chabot-space-science-center",
    "name": "Chabot Space & Science Center",
    "address": "10000 Skyline Blvd",
    "city": "Oakland",
    "state": "CA",
    "country": "USA",
    "zip": "94619",
    "phone": "(510) 336- 7300",
    "website": "https://chabotspace.org/",
    "admittancePolicy": "For visitors whose reciprocal institution is within 90 miles of Chabot, we offer a 50% discount for up to four visitors. For visitors whose reciprocal institution is outside 90 miles from Chabot, we offer free admission for up to four visitors. Must show valid membership card with ASTC logo from a reciprocal institution.",
    "proofOfResidenceRequired": true,
    "latitude": 37.8184631,
    "longitude": -122.1806867,
    "discountType": "free",
    "specialNotes": ""
  },
  {
    "id": "exploratorium",
    "name": "Exploratorium",
    "address": "Pier 15",
    "city": "San Francisco",
    "state": "CA",
    "country": "USA",
    "zip": "94111",
    "phone": "(415) 528- 4321",
    "website": "https://www.exploratorium.edu",
    "admittancePolicy": "Two people total. One adult present must be named on the membership card. Photo ID or other proof of residence required. Does not include admission to After Dark Thursday nights.",
    "proofOfResidenceRequired": true,
    "latitude": 37.8016231,
    "longitude": -122.3973665,
    "discountType": "free",
    "specialNotes": ""
  },
  {
    "id": "fleet-science-center",
    "name": "Fleet Science Center",
    "address": "1875 El Prado",
    "city": "Balboa Park",
    "state": "San",
    "country": "USA",
    "zip": "Diego",
    "phone": "(619) 238- 1233",
    "website": "https://www.fleetscience.org/",
    "admittancePolicy": "Four total admissions to the galleries. Additional fees required for theater. Excludes fee-based special events.",
    "proofOfResidenceRequired": true,
    "latitude": 32.7307111,
    "longitude": -117.1469914,
    "discountType": "free",
    "specialNotes": ""
  },
  {
    "id": "gateway-science-museum",
    "name": "Gateway Science Museum",
    "address": "400 W 1st St",
    "city": "California State University Chico",
    "state": "CALIFORNIA",
    "country": "USA",
    "zip": "",
    "phone": "(530) 898- 4121",
    "website": "https://www.csuchico.edu/gateway",
    "admittancePolicy": "Two adults and up to four children, from the same household.",
    "proofOfResidenceRequired": false,
    "latitude": 39.7336454,
    "longitude": -121.8437426,
    "discountType": "free",
    "specialNotes": ""
  },
  {
    "id": "kern-county-museum",
    "name": "Kern County Museum",
    "address": "3801 Chester Ave",
    "city": "Bakersfield",
    "state": "CA",
    "country": "USA",
    "zip": "93301",
    "phone": "(661) 437- 3330",
    "website": "https://kerncountymuseum.org/",
    "admittancePolicy": "Up to two adults, must be named on the membership card, and four children.",
    "proofOfResidenceRequired": true,
    "latitude": 35.3927361,
    "longitude": -119.01899,
    "discountType": "free",
    "specialNotes": ""
  },
  {
    "id": "kidspace-children-s-museum",
    "name": "Kidspace Children's Museum",
    "address": "480 N Arroyo Blvd",
    "city": "Pasadena",
    "state": "CA",
    "country": "USA",
    "zip": "91103",
    "phone": "(626) 449- 9144",
    "website": "https://kidspacemuseum.org",
    "admittancePolicy": "Free general admission for up to four guests with at least one adult (18 or over) present at all times. Additional guests pay regular admission.",
    "proofOfResidenceRequired": true,
    "latitude": 34.1556583,
    "longitude": -118.1639855,
    "discountType": "free",
    "specialNotes": ""
  },
  {
    "id": "lindsay-wildlife-experience",
    "name": "Lindsay Wildlife Experience",
    "address": "1931 1st Ave",
    "city": "Walnut Creek",
    "state": "CA",
    "country": "USA",
    "zip": "94597",
    "phone": "(925) 935- 1978",
    "website": "https://lindsaywildlife.org/",
    "admittancePolicy": "Two named adults and up to four children or grandchildren under 18.",
    "proofOfResidenceRequired": false,
    "latitude": 37.9233951,
    "longitude": -122.07572,
    "discountType": "free",
    "specialNotes": ""
  },
  {
    "id": "san-diego-natural-history-museum",
    "name": "San Diego Natural History Museum",
    "address": "1788 El Prado",
    "city": "Balboa Park",
    "state": "San",
    "country": "USA",
    "zip": "Diego",
    "phone": "(619) 232- 3821",
    "website": "https://www.sdnhm.org/",
    "admittancePolicy": "Two adults and children under 18 in the same household.",
    "proofOfResidenceRequired": false,
    "latitude": 32.7321207,
    "longitude": -117.1473291,
    "discountType": "free",
    "specialNotes": ""
  },
  {
    "id": "santa-barbara-museum-of-natural-history",
    "name": "Santa Barbara Museum of Natural History",
    "address": "2559 Puesta Del Sol",
    "city": "Santa Barbara",
    "state": "CA",
    "country": "USA",
    "zip": "93105",
    "phone": "(805) 682- 4711",
    "website": "https://www.sbnature.org/",
    "admittancePolicy": "Two adults and up to five children under 18. Includes Santa Barbara Museum of Natural History Sea Center, 211 Stearns Wharf, Santa Barbara, CA 93101; (805) 962-2526. Proof of Residence Required.",
    "proofOfResidenceRequired": true,
    "latitude": 34.4410184,
    "longitude": -119.7143913,
    "discountType": "free",
    "specialNotes": ""
  },
  {
    "id": "santa-cruz-museum-of-natural-history",
    "name": "Santa Cruz Museum of Natural History",
    "address": "1305 E Cliff Dr",
    "city": "Santa Cruz",
    "state": "CA",
    "country": "USA",
    "zip": "95062",
    "phone": "(831) 420- 6115",
    "website": "https://www.santacruzmuseum.org/",
    "admittancePolicy": "Up to two adults and all children under 18.",
    "proofOfResidenceRequired": false,
    "latitude": 36.9645595,
    "longitude": -122.0095858,
    "discountType": "free",
    "specialNotes": ""
  },
  {
    "id": "smud-museum-of-science-and-curiosity-mosac",
    "name": "SMUD Museum of Science and Curiosity (MOSAC)",
    "address": "400 Jibboom Street",
    "city": "Sacramento",
    "state": "CA",
    "country": "USA",
    "zip": "95811",
    "phone": "(916) 674- 5000",
    "website": "https://visitmosac.org/",
    "admittancePolicy": "Two adults and up to 4 children under 18.",
    "proofOfResidenceRequired": true,
    "latitude": 38.5931885,
    "longitude": -121.5056531,
    "discountType": "free",
    "specialNotes": ""
  },
  {
    "id": "the-lawrence-hall-of-science",
    "name": "The Lawrence Hall of Science",
    "address": "1 Centennial Dr",
    "city": "Berkeley",
    "state": "CA",
    "country": "USA",
    "zip": "94720",
    "phone": "(510) 642- 5132",
    "website": "https://lawrencehallofscience.org/",
    "admittancePolicy": "Two named cardholders and up to 4 guests (6 admissions per day).",
    "proofOfResidenceRequired": true,
    "latitude": 37.8727907,
    "longitude": -122.2447436,
    "discountType": "free",
    "specialNotes": ""
  },
  {
    "id": "the-tech-interactive",
    "name": "The Tech Interactive",
    "address": "201 S Market St",
    "city": "San Jose",
    "state": "CA",
    "country": "USA",
    "zip": "95113",
    "phone": "(408) 294- 8324",
    "website": "https://www.thetech.org/",
    "admittancePolicy": "Up to four people.",
    "proofOfResidenceRequired": true,
    "latitude": 37.331404,
    "longitude": -121.8901566,
    "discountType": "free",
    "specialNotes": ""
  },
  {
    "id": "turtle-bay-exploration-park",
    "name": "Turtle Bay Exploration Park",
    "address": "844 Sundial Bridge Dr",
    "city": "Redding",
    "state": "CA",
    "country": "USA",
    "zip": "96001",
    "phone": "(530) 243- 8850",
    "website": "https://www.turtlebay.org/",
    "admittancePolicy": "Two adults and up to four children under 18.",
    "proofOfResidenceRequired": false,
    "latitude": 40.5911498,
    "longitude": -122.3766458,
    "discountType": "free",
    "specialNotes": ""
  },
  {
    "id": "western-science-center",
    "name": "Western Science Center",
    "address": "2345 Searl Pkwy",
    "city": "Hemet",
    "state": "CA",
    "country": "USA",
    "zip": "92543",
    "phone": "(951) 791- 0033",
    "website": "https://www.westernsciencecenter.org/",
    "admittancePolicy": "Two adults and up to three children of the same household.",
    "proofOfResidenceRequired": false,
    "latitude": 33.7065965,
    "longitude": -116.9929576,
    "discountType": "free",
    "specialNotes": ""
  },
  {
    "id": "world-of-wonders-science-museum",
    "name": "World of Wonders Science Museum",
    "address": "2 North Sacramento Street",
    "city": "Lodi",
    "state": "CA",
    "country": "USA",
    "zip": "95240",
    "phone": "(209) 368- 0969",
    "website": "https://www.wowsciencemuseum.org/",
    "admittancePolicy": "Two members and children or grandchildren under 18.",
    "proofOfResidenceRequired": false,
    "latitude": 38.134281,
    "longitude": -121.272087,
    "discountType": "free",
    "specialNotes": ""
  },
  {
    "id": "denver-museum-of-nature-and-science",
    "name": "Denver Museum of Nature and Science",
    "address": "2001 N Colorado Blvd",
    "city": "Denver",
    "state": "CO",
    "country": "USA",
    "zip": "80205",
    "phone": "(303) 370- 6306",
    "website": "https://www.dmns.org/",
    "admittancePolicy": "Two adults and their children ages 3–18.",
    "proofOfResidenceRequired": true,
    "latitude": 39.7475211,
    "longitude": -104.9404859,
    "discountType": "free",
    "specialNotes": ""
  },
  {
    "id": "fiske-planetarium-and-science-center",
    "name": "Fiske Planetarium and Science Center",
    "address": "2414 Regent Dr",
    "city": "Boulder",
    "state": "CO",
    "country": "USA",
    "zip": "80309",
    "phone": "(303) 492- 5002",
    "website": "https://www.colorado.edu/fiske",
    "admittancePolicy": "Free entry to exhibit space, 10% discount on gift-store purchases, and 50% discount on regular shows.",
    "proofOfResidenceRequired": false,
    "latitude": 40.0035966,
    "longitude": -105.2635366,
    "discountType": "free",
    "specialNotes": ""
  },
  {
    "id": "fort-collins-museum-of-discovery",
    "name": "Fort Collins Museum of Discovery",
    "address": "408 Mason Ct",
    "city": "Fort Collins",
    "state": "CO",
    "country": "USA",
    "zip": "80524",
    "phone": "(970) 221- 6738",
    "website": "https://fcmod.org/",
    "admittancePolicy": "All individuals covered by membership, cardholder(s) must be present.",
    "proofOfResidenceRequired": false,
    "latitude": 40.5934306,
    "longitude": -105.0780625,
    "discountType": "free",
    "specialNotes": ""
  },
  {
    "id": "space-foundation-discovery-center",
    "name": "Space Foundation Discovery Center",
    "address": "4425 Arrowswest Dr",
    "city": "Colorado Springs",
    "state": "CO",
    "country": "USA",
    "zip": "80907",
    "phone": "(719) 576- 8000",
    "website": "https://www.discoverspace.org/",
    "admittancePolicy": "One or two adults and their children under 17 living in the same household.",
    "proofOfResidenceRequired": false,
    "latitude": 38.8958218,
    "longitude": -104.8626432,
    "discountType": "free",
    "specialNotes": ""
  },
  {
    "id": "the-powerhouse",
    "name": "The Powerhouse",
    "address": "1333 Camino Del Rio",
    "city": "Durango",
    "state": "CO",
    "country": "USA",
    "zip": "81301",
    "phone": "(970) 259- 9234",
    "website": "https://powsci.org/",
    "admittancePolicy": "Two adults and children or grandchildren under 18.",
    "proofOfResidenceRequired": false,
    "latitude": 37.2788262,
    "longitude": -107.8799844,
    "discountType": "free",
    "specialNotes": ""
  },
  {
    "id": "united-states-olympic-and-paralympic-museum",
    "name": "United States Olympic and Paralympic Museum",
    "address": "200 S Sierra Madre St",
    "city": "Colorado Springs",
    "state": "CO",
    "country": "USA",
    "zip": "80903",
    "phone": "(719) 497- 1234",
    "website": "https://usopm.org/",
    "admittancePolicy": "Any members at museums or institutions within 60 miles of our location. Admission will mirror the membership at home institution.",
    "proofOfResidenceRequired": true,
    "latitude": 38.831116,
    "longitude": -104.829156,
    "discountType": "free",
    "specialNotes": ""
  },
  {
    "id": "wings-over-the-rockies",
    "name": "Wings Over the Rockies",
    "address": "7711 East Academy Boulevard",
    "city": "Denver",
    "state": "CO",
    "country": "USA",
    "zip": "80230",
    "phone": "(303) 360- 5360",
    "website": "https://wingsmuseum.org/",
    "admittancePolicy": "Two adults and their children ages 3–18. Includes Wings Over the Rockies Exploration of Flight, 13005 Wings Way, Englewood, CO 80112; (303) 360-5360.",
    "proofOfResidenceRequired": false,
    "latitude": 39.7210515,
    "longitude": -104.8954657,
    "discountType": "free",
    "specialNotes": ""
  },
  {
    "id": "connecticut-science-center",
    "name": "Connecticut Science Center",
    "address": "250 Columbus Boulevard",
    "city": "Hartford",
    "state": "CT",
    "country": "USA",
    "zip": "06103",
    "phone": "(860) 724- 3623",
    "website": "https://ctsciencecenter.org/",
    "admittancePolicy": "Two (2) people per day, per membership, are eligible for free general admission, one of whom must be a named adult cardholder on the membership (valid membership card and state photo ID must be presented at the time of entry). Additional guests pay regular admission. This offer is valid for general admission only, and no other discounts apply. Passport visitors also receive a 10% discount in our Gift Shop.",
    "proofOfResidenceRequired": true,
    "latitude": 41.7648328,
    "longitude": -72.6688383,
    "discountType": "free",
    "specialNotes": ""
  },
  {
    "id": "lutz-children-s-museum",
    "name": "Lutz Children's Museum",
    "address": "247 S Main St",
    "city": "Manchester",
    "state": "CT",
    "country": "USA",
    "zip": "06040",
    "phone": "(860) 643- 0949",
    "website": "https://lutzmuseum.org/",
    "admittancePolicy": "Up to four people living at a single address.",
    "proofOfResidenceRequired": false,
    "latitude": 41.7554678,
    "longitude": -72.5198502,
    "discountType": "free",
    "specialNotes": ""
  },
  {
    "id": "nature-center",
    "name": "Nature Center",
    "address": "30 High St",
    "city": "New Britain",
    "state": "CT",
    "country": "USA",
    "zip": "06051",
    "phone": "(860) 225- 3020",
    "website": "https://www.newbritainyouthmuseum.org/",
    "admittancePolicy": "Household, up to five people. Includes New Britain Youth Museum is 30 High Street, New Britain CT 06051 and the Hungerford Nature Center is 191 Farmington Ave., Kensington CT 06037.",
    "proofOfResidenceRequired": false,
    "latitude": 41.6678375,
    "longitude": -72.7864883,
    "discountType": "free",
    "specialNotes": ""
  },
  {
    "id": "shu-discovery-science-center-and-planetarium",
    "name": "SHU Discovery Science Center and Planetarium",
    "address": "4450 Park Ave",
    "city": "Bridgeport",
    "state": "CT",
    "country": "USA",
    "zip": "06604",
    "phone": "(203) 416- 3521",
    "website": "https://www.shudiscovery.org/",
    "admittancePolicy": "Up to two adults and four children (under 18) living in same household.",
    "proofOfResidenceRequired": false,
    "latitude": 41.2150394,
    "longitude": -73.2331951,
    "discountType": "free",
    "specialNotes": ""
  },
  {
    "id": "stepping-stones-museum-for-children",
    "name": "Stepping Stones Museum for Children",
    "address": "303 West Ave",
    "city": "Norwalk",
    "state": "CT",
    "country": "USA",
    "zip": "06850",
    "phone": "(203) 899- 0606",
    "website": "https://www.steppingstonesmuseum.org/",
    "admittancePolicy": "Two adults and up to four children under 18 in household.",
    "proofOfResidenceRequired": true,
    "latitude": 41.1099721,
    "longitude": -73.415518,
    "discountType": "free",
    "specialNotes": ""
  },
  {
    "id": "the-children-s-museum",
    "name": "The Children's Museum",
    "address": "180 Mohegan Drive",
    "city": "West Hartford",
    "state": "CT",
    "country": "USA",
    "zip": "06117",
    "phone": "(860) 231- 2830",
    "website": "https://www.thechildrensmuseumct.org/",
    "admittancePolicy": "Includes Roaring Brook Nature Center @ 70 Gracey Road, Canton, CT 06019; (860) 693 - 0263. Admittance Policy: Two adults, named on the membership card and up to two children, ages 2 - 18. Children under 2 are free. Additional fees apply to special programs and exhibits. The Children's Museum and Roaring Brook Nature Center.",
    "proofOfResidenceRequired": true,
    "latitude": 41.7989616,
    "longitude": -72.735452,
    "discountType": "free",
    "specialNotes": ""
  },
  {
    "id": "yale-peabody-museum",
    "name": "Yale Peabody Museum",
    "address": "170 Whitney Ave",
    "city": "New Haven",
    "state": "CT",
    "country": "USA",
    "zip": "06511- 8902",
    "phone": "(203) 432- 8987",
    "website": "https://peabody.yale.edu/",
    "admittancePolicy": "Free admission for all visitors.",
    "proofOfResidenceRequired": false,
    "latitude": 41.3160343,
    "longitude": -72.921086,
    "discountType": "free",
    "specialNotes": ""
  },
  {
    "id": "delaware-museum-of-nature-and-science",
    "name": "Delaware Museum of Nature and Science",
    "address": "4840 Kennett Pike",
    "city": "Wilmington",
    "state": "DE",
    "country": "USA",
    "zip": "19807",
    "phone": "(302) 658- 9111",
    "website": "https://delmns.org/",
    "admittancePolicy": "Up to two adults and 4 children in same household. Photo ID required for all visitors.",
    "proofOfResidenceRequired": true,
    "latitude": 39.7655282,
    "longitude": -75.582723,
    "discountType": "free",
    "specialNotes": ""
  },
  {
    "id": "iron-hill-museum-science-center",
    "name": "Iron Hill Museum & Science Center",
    "address": "1115 Robert L Melson Ln",
    "city": "Newark",
    "state": "DE",
    "country": "USA",
    "zip": "19702",
    "phone": "(302) 368- 5703",
    "website": "https://www.ironhillsciencecenter.org/",
    "admittancePolicy": "Two adults and their children ages 18 and under.",
    "proofOfResidenceRequired": false,
    "latitude": 39.6322447,
    "longitude": -75.7574219,
    "discountType": "free",
    "specialNotes": ""
  },
  {
    "id": "cade-museum-for-creativity-and-invention",
    "name": "Cade Museum for Creativity and Invention",
    "address": "811 S Main St",
    "city": "Gainesville",
    "state": "FL",
    "country": "USA",
    "zip": "32601",
    "phone": "(352) 371- 8001",
    "website": "https://www.cademuseum.org/",
    "admittancePolicy": "General admission for two adults and all children under 18 living in same household. Museum store discount of 10%. Some exclusions apply.",
    "proofOfResidenceRequired": false,
    "latitude": 29.6442452,
    "longitude": -82.3251833,
    "discountType": "free",
    "specialNotes": ""
  },
  {
    "id": "challenger-learning-center-of-tallahassee",
    "name": "Challenger Learning Center of Tallahassee",
    "address": "200 S Duval St",
    "city": "Tallahassee",
    "state": "FL",
    "country": "USA",
    "zip": "32301",
    "phone": "(850) 645- 7827",
    "website": "https://www.challengertlh.com/",
    "admittancePolicy": "Two adults and their children under 18 residing in the same household. Passport visitors receive free admission to one (1) Planetarium show each day. Does not include IMAX Theater.",
    "proofOfResidenceRequired": false,
    "latitude": 30.4403057,
    "longitude": -84.2834049,
    "discountType": "free",
    "specialNotes": ""
  },
  {
    "id": "great-explorations-children-s-museum",
    "name": "Great Explorations Children's Museum",
    "address": "1925 4th St N",
    "city": "Saint Petersburg",
    "state": "FL",
    "country": "USA",
    "zip": "33704",
    "phone": "(727) 821- 8992",
    "website": "https://greatex.org/",
    "admittancePolicy": "Up to five immediate family members.",
    "proofOfResidenceRequired": true,
    "latitude": 27.7903595,
    "longitude": -82.6379044,
    "discountType": "free",
    "specialNotes": ""
  },
  {
    "id": "imag-history-science-center",
    "name": "IMAG History & Science Center",
    "address": "2000 Cranford Ave",
    "city": "Fort Myers",
    "state": "FL",
    "country": "USA",
    "zip": "33916",
    "phone": "(239) 243- 0043",
    "website": "https://theimag.org/",
    "admittancePolicy": "Two adults and up to four children under 18 living in the same household.",
    "proofOfResidenceRequired": true,
    "latitude": 26.6404361,
    "longitude": -81.859428,
    "discountType": "free",
    "specialNotes": ""
  },
  {
    "id": "loggerhead-marinelife-center",
    "name": "Loggerhead Marinelife Center",
    "address": "14200 US Highway 1",
    "city": "Juno Beach",
    "state": "FL",
    "country": "USA",
    "zip": "33408",
    "phone": "(561) 627- 8280",
    "website": "https://marinelife.org/",
    "admittancePolicy": "Admission is free. Passport visitors receive a 10% discount on store purchases.",
    "proofOfResidenceRequired": false,
    "latitude": 26.8845576,
    "longitude": -80.0559417,
    "discountType": "free",
    "specialNotes": ""
  },
  {
    "id": "mosi-museum-of-science-industry",
    "name": "MOSI (Museum of Science & Industry)",
    "address": "4801 E Fowler Ave",
    "city": "Tampa",
    "state": "FL",
    "country": "USA",
    "zip": "33617",
    "phone": "(813) 987- 6000",
    "website": "https://www.mosi.org/",
    "admittancePolicy": "Free admission to MOSI permanent exhibits for up to five with a valid membership card and photo ID. Excludes fee-based experiences, special exhibitions, and special events.",
    "proofOfResidenceRequired": true,
    "latitude": 28.0536311,
    "longitude": -82.404789,
    "discountType": "free",
    "specialNotes": ""
  },
  {
    "id": "museum-of-discovery-and-science",
    "name": "Museum of Discovery and Science",
    "address": "401 SW 2nd St",
    "city": "Fort Lauderdale",
    "state": "FL",
    "country": "USA",
    "zip": "33312",
    "phone": "(954) 467- 6637",
    "website": "http://mods.org/",
    "admittancePolicy": "Two adults and up to four children. MODS Discovery Pass, an all-in-one-ticket that includes Museum exhibits, live science demonstrations and an IMAX® documentary film. Photo ID required for cardholder.",
    "proofOfResidenceRequired": true,
    "latitude": 26.120526,
    "longitude": -80.147578,
    "discountType": "free",
    "specialNotes": ""
  },
  {
    "id": "museum-of-science-history-of-jacksonville",
    "name": "Museum of Science & History of Jacksonville",
    "address": "1025 Museum Cir",
    "city": "Jacksonville",
    "state": "FL",
    "country": "USA",
    "zip": "32207",
    "phone": "(904) 396- 6674",
    "website": "https://themosh.org/",
    "admittancePolicy": "All members of one household.",
    "proofOfResidenceRequired": false,
    "latitude": 30.3186343,
    "longitude": -81.6596286,
    "discountType": "free",
    "specialNotes": ""
  },
  {
    "id": "orlando-science-center",
    "name": "Orlando Science Center",
    "address": "777 E Princeton St",
    "city": "Orlando",
    "state": "FL",
    "country": "USA",
    "zip": "32803",
    "phone": "(407) 514- 2000",
    "website": "https://www.osc.org/",
    "admittancePolicy": "Two adults and children under 18 on the membership. Excludes special events, films, blockbuster exhibits, and free parking. Residency rule enforced.",
    "proofOfResidenceRequired": true,
    "latitude": 28.5717809,
    "longitude": -81.3689913,
    "discountType": "free",
    "specialNotes": ""
  },
  {
    "id": "pensacola-mess-hall",
    "name": "Pensacola MESS Hall",
    "address": "418 E Wright St",
    "city": "Pensacola",
    "state": "FL",
    "country": "USA",
    "zip": "32501",
    "phone": "(877) 937- 6377",
    "website": "https://pensacolamesshall.org/",
    "admittancePolicy": "Up to six people, one of whom must be the cardholder.",
    "proofOfResidenceRequired": true,
    "latitude": 30.4175442,
    "longitude": -87.2106999,
    "discountType": "free",
    "specialNotes": ""
  },
  {
    "id": "phillip-and-patricia-frost-museum-of-science",
    "name": "Phillip and Patricia Frost Museum of Science",
    "address": "1101 Biscayne Blvd",
    "city": "Miami",
    "state": "FL",
    "country": "USA",
    "zip": "33132",
    "phone": "(305) 434- 9600",
    "website": "https://www.frostscience.org/",
    "admittancePolicy": "Free admission for one adult cardholder and up to three guests. Proof of valid membership and photo ID are required. Special exhibitions may require additional fees. Discounts at the Science Store, Food@Science, parking, or on additional tickets is not included.",
    "proofOfResidenceRequired": true,
    "latitude": 25.7849333,
    "longitude": -80.1882689,
    "discountType": "free",
    "specialNotes": ""
  },
  {
    "id": "florida",
    "name": "Florida",
    "address": "308 Airport Rd",
    "city": "Panama City",
    "state": "FL",
    "country": "USA",
    "zip": "32405",
    "phone": "(850) 769- 6128",
    "website": "https://scienceanddiscoverycenter.org/",
    "admittancePolicy": "Up to four people living in the same household.",
    "proofOfResidenceRequired": false,
    "latitude": 30.1798862,
    "longitude": -85.6641289,
    "discountType": "free",
    "specialNotes": ""
  },
  {
    "id": "the-bishop-museum-of-science-and-nature",
    "name": "The Bishop Museum of Science and Nature",
    "address": "201 10th St W",
    "city": "Bradenton",
    "state": "FL",
    "country": "USA",
    "zip": "34205",
    "phone": "(941) 746- 4131",
    "website": "https://bishopscience.org/",
    "admittancePolicy": "Four total admissions. Free general admission to the Museum, Manatee Rehabilitation Habitat, Planetarium and Mosaic Backyard Universe. Excludes special fee-based: experiences, exhibits, programs, and special events.",
    "proofOfResidenceRequired": false,
    "latitude": 27.4982631,
    "longitude": -82.5715558,
    "discountType": "free",
    "specialNotes": ""
  },
  {
    "id": "coca-cola-space-science-center",
    "name": "Coca-Cola Space Science Center",
    "address": "701 Front Avenue",
    "city": "Columbus",
    "state": "GA",
    "country": "USA",
    "zip": "31901",
    "phone": "(706) 649- 1477",
    "website": "https://www.ccssc.org/",
    "admittancePolicy": "Free admission to the exhibit gallery for member and three additional people. Omnisphere theater tickets (includes multiple showings) for Passport visitors are $4 for adults and $3 for children.",
    "proofOfResidenceRequired": false,
    "latitude": 32.459198,
    "longitude": -84.994666,
    "discountType": "free",
    "specialNotes": ""
  },
  {
    "id": "fernbank-science-center",
    "name": "Fernbank Science Center",
    "address": "156 Heaton Park Dr",
    "city": "Atlanta",
    "state": "GA",
    "country": "USA",
    "zip": "30307",
    "phone": "(678) 874- 7102",
    "website": "http://www.fernbank.edu",
    "admittancePolicy": "Exhibit hall is free; Passport visitors receive free admission, for up to four family members, to one planetarium show per day. Please check our website for current operating hours.",
    "proofOfResidenceRequired": false,
    "latitude": 33.7787494,
    "longitude": -84.318088,
    "discountType": "free",
    "specialNotes": ""
  },
  {
    "id": "tellus-science-museum",
    "name": "Tellus Science Museum",
    "address": "100 Tellus Drive",
    "city": "Cartersville",
    "state": "GA",
    "country": "USA",
    "zip": "30120",
    "phone": "(770) 606- 5700",
    "website": "https://www.tellusmuseum.org",
    "admittancePolicy": "Valid membership card and state ID must be presented at the time of entry. No other discounts apply.",
    "proofOfResidenceRequired": true,
    "latitude": 34.2422263,
    "longitude": -84.7709614,
    "discountType": "free",
    "specialNotes": ""
  },
  {
    "id": "maui-ocean-center",
    "name": "Maui Ocean Center",
    "address": "192 Maalaea Rd",
    "city": "Wailuku",
    "state": "HI",
    "country": "USA",
    "zip": "",
    "phone": "(808) 270- 7000",
    "website": "https://mauioceancenter.com/",
    "admittancePolicy": "Free general admission for up to two (2) individuals (adults and/or children). Valid membership card and state ID must be presented at the time of entry. No other discounts apply.",
    "proofOfResidenceRequired": false,
    "latitude": 20.7927814,
    "longitude": -156.5118788,
    "discountType": "free",
    "specialNotes": ""
  },
  {
    "id": "discovery-center-of-idaho",
    "name": "Discovery Center of Idaho",
    "address": "131 W Myrtle St",
    "city": "Boise",
    "state": "ID",
    "country": "USA",
    "zip": "83702",
    "phone": "(208) 343- 9895",
    "website": "https://www.dcidaho.org/",
    "admittancePolicy": "Two adults and all children (under 18) living in same household. Special exhibitions are excluded; call for information.",
    "proofOfResidenceRequired": false,
    "latitude": 43.6085033,
    "longitude": -116.1992724,
    "discountType": "free",
    "specialNotes": ""
  },
  {
    "id": "idaho-museum-of-natural-history",
    "name": "Idaho Museum of Natural History",
    "address": "698 E Dillon St",
    "city": "Pocatello",
    "state": "ID",
    "country": "USA",
    "zip": "83201",
    "phone": "(208) 282- 3168",
    "website": "https://www.isu.edu/imnh/",
    "admittancePolicy": "Two adults (18 and older) and up to six children or grandchildren age 17 and under.",
    "proofOfResidenceRequired": false,
    "latitude": 42.859695,
    "longitude": -112.433892,
    "discountType": "free",
    "specialNotes": ""
  },
  {
    "id": "adler-planetarium",
    "name": "Adler Planetarium",
    "address": "1300 S Dusable Lake Shore Dr",
    "city": "Chicago",
    "state": "IL",
    "country": "USA",
    "zip": "60605",
    "phone": "(312) 922- 7827",
    "website": "https://www.adlerplanetarium.org/visit/tickets/sp",
    "admittancePolicy": "Two adults and up to four children (ages 3–17) living in one household. Advanced ticket purchase is required online.",
    "proofOfResidenceRequired": false,
    "latitude": 41.8565784,
    "longitude": -87.615797,
    "discountType": "free",
    "specialNotes": ""
  },
  {
    "id": "burpee-museum-of-natural-history",
    "name": "Burpee Museum of Natural History",
    "address": "737 N Main St",
    "city": "Rockford",
    "state": "IL",
    "country": "USA",
    "zip": "61103",
    "phone": "(815) 965- 3433",
    "website": "http://www.burpee.org/",
    "admittancePolicy": "Two adults and all children under 18 living in the same household.",
    "proofOfResidenceRequired": true,
    "latitude": 42.2771929,
    "longitude": -89.089427,
    "discountType": "free",
    "specialNotes": ""
  },
  {
    "id": "cernan-earth-and-space-center-at-triton-college",
    "name": "Cernan Earth and Space Center at Triton College",
    "address": "2000 5th Ave",
    "city": "River Grove",
    "state": "IL",
    "country": "USA",
    "zip": "60171",
    "phone": "(708) 456- 0300",
    "website": "https://www.triton.edu/cernan",
    "admittancePolicy": "Free planetarium admission for up to four family members. All other family members admitted at youth price. Passport visitors receive 10% off Star Store purchases, excluding autographed books.",
    "proofOfResidenceRequired": false,
    "latitude": 41.9146503,
    "longitude": -87.8412803,
    "discountType": "free",
    "specialNotes": ""
  },
  {
    "id": "children-s-discovery-museum",
    "name": "Children's Discovery Museum",
    "address": "101 East Beaufort Street",
    "city": "Normal",
    "state": "IL",
    "country": "USA",
    "zip": "61761",
    "phone": "(309) 433- 3444",
    "website": "https://www.childrensdiscoverymuseum.net/",
    "admittancePolicy": "Two adults and their children living in the same household. Residency rule enforced.",
    "proofOfResidenceRequired": true,
    "latitude": 40.509307,
    "longitude": -88.98388,
    "discountType": "free",
    "specialNotes": ""
  },
  {
    "id": "children-s-museum-of-illinois",
    "name": "Children's Museum of Illinois",
    "address": "55 South Country Club Road",
    "city": "Decatur",
    "state": "IL",
    "country": "USA",
    "zip": "62521",
    "phone": "(217) 423- 5437",
    "website": "https://cmofil.org/",
    "admittancePolicy": "Two adults in the same household, all children, and up to four grandparents named on the membership card.",
    "proofOfResidenceRequired": false,
    "latitude": 39.8279341,
    "longitude": -88.9129435,
    "discountType": "free",
    "specialNotes": ""
  },
  {
    "id": "discovery-center-museum",
    "name": "Discovery Center Museum",
    "address": "711 N Main St",
    "city": "Rockford",
    "state": "IL",
    "country": "USA",
    "zip": "61103",
    "phone": "(815) 963- 6769",
    "website": "https://www.discoverycentermuseum.org/",
    "admittancePolicy": "Two adults and two children under 18 living in the same household.",
    "proofOfResidenceRequired": true,
    "latitude": 42.2771267,
    "longitude": -89.0891792,
    "discountType": "free",
    "specialNotes": ""
  },
  {
    "id": "field-museum",
    "name": "Field Museum",
    "address": "1400 S Lake Shore Dr",
    "city": "Chicago",
    "state": "IL",
    "country": "USA",
    "zip": "60605",
    "phone": "(312) 922- 9410",
    "website": "https://www.fieldmuseum.org/",
    "admittancePolicy": "Two adults and up to two children, 17 and under. Proof of valid membership and photo ID are required to receive complimentary basic admission. Special exhibitions, 3D theater tickets, and lockers are not included.",
    "proofOfResidenceRequired": true,
    "latitude": 41.9838853,
    "longitude": -87.6527024,
    "discountType": "free",
    "specialNotes": ""
  },
  {
    "id": "griffin-museum-of-science-and-industry",
    "name": "Griffin Museum of Science and Industry",
    "address": "5700 South DuSable Lake Shore Drive",
    "city": "Chicago",
    "state": "IL",
    "country": "USA",
    "zip": "",
    "phone": "(773) 684- 1414",
    "website": "https://www.griffinmsi.org/",
    "admittancePolicy": "Up to two adults and two children under 18 living in the same household. One adult must be member cardholder. Complimentary general admission only, add-on experiences must be purchased. Must obtain general admission ticket for entry by presenting current membership card and valid photo ID (or other proof of residence) at the museum ticket counter.",
    "proofOfResidenceRequired": true,
    "latitude": 41.8121126,
    "longitude": -87.590322,
    "discountType": "free",
    "specialNotes": ""
  },
  {
    "id": "international-museum-of-surgical-science",
    "name": "International Museum of Surgical Science",
    "address": "1524 N Lake Shore Dr",
    "city": "Chicago",
    "state": "IL",
    "country": "USA",
    "zip": "60610",
    "phone": "(312) 642- 6502",
    "website": "https://imss.org/",
    "admittancePolicy": "Two adults and all children 18 and under living in the same household.",
    "proofOfResidenceRequired": false,
    "latitude": 41.910153,
    "longitude": -87.6269402,
    "discountType": "free",
    "specialNotes": ""
  },
  {
    "id": "kidzeum-of-health-and-science",
    "name": "Kidzeum of Health and Science",
    "address": "412 E Adams St",
    "city": "Springfield",
    "state": "IL",
    "country": "USA",
    "zip": "62701",
    "phone": "(217) 679- 2123",
    "website": "https://kidzeum.org/",
    "admittancePolicy": "Up to two adults and four children or grandchildren under 18 will be admitted for free. Must have membership card present.",
    "proofOfResidenceRequired": true,
    "latitude": 39.800269,
    "longitude": -89.6501777,
    "discountType": "free",
    "specialNotes": ""
  },
  {
    "id": "peggy-notebaert-nature-museum",
    "name": "Peggy Notebaert Nature Museum",
    "address": "2430 N Cannon Dr",
    "city": "Chicago",
    "state": "IL",
    "country": "USA",
    "zip": "60614",
    "phone": "(773) 755- 5100",
    "website": "https://www.naturemuseum.org/",
    "admittancePolicy": "Two adults and all children 18 and under in the same household. Proof of valid membership and photo ID are required to receive complimentary basic admission. Special exhibitions may require additional fees.",
    "proofOfResidenceRequired": true,
    "latitude": 41.9269829,
    "longitude": -87.6354214,
    "discountType": "free",
    "specialNotes": ""
  },
  {
    "id": "peoria-playhouse-children-s-museum",
    "name": "Peoria PlayHouse Children's Museum",
    "address": "2218 N Prospect Rd",
    "city": "Peoria",
    "state": "IL",
    "country": "USA",
    "zip": "61603",
    "phone": "(309) 323- 6893",
    "website": "https://peoriaplayhouse.org/",
    "admittancePolicy": "Up to two adults and the children living in their household. We do not limit numbers of kids, but do ask visitors to only include those in their household.",
    "proofOfResidenceRequired": true,
    "latitude": 40.7145857,
    "longitude": -89.5733449,
    "discountType": "free",
    "specialNotes": ""
  },
  {
    "id": "peoria-riverfront-museum",
    "name": "Peoria Riverfront Museum",
    "address": "222 SW Washington St",
    "city": "Peoria",
    "state": "IL",
    "country": "USA",
    "zip": "61602",
    "phone": "(309) 686- 7000",
    "website": "https://www.peoriariverfrontmuseum.org/",
    "admittancePolicy": "2 adults and children under 18.",
    "proofOfResidenceRequired": true,
    "latitude": 40.6892166,
    "longitude": -89.5902176,
    "discountType": "free",
    "specialNotes": ""
  },
  {
    "id": "the-science-center",
    "name": "The Science Center",
    "address": "1237 E Main St # 1048",
    "city": "Carbondale",
    "state": "IL",
    "country": "USA",
    "zip": "62901",
    "phone": "(618) 529- 5431",
    "website": "https://sciencecentersi.com/",
    "admittancePolicy": "Parents/guardians and children under 18 in immediate family.",
    "proofOfResidenceRequired": false,
    "latitude": 37.728919,
    "longitude": -89.1930067,
    "discountType": "free",
    "specialNotes": ""
  },
  {
    "id": "carnegie-museum-of-montgomery-county",
    "name": "Carnegie Museum of Montgomery County",
    "address": "222 S Washington St",
    "city": "Crawfordsville",
    "state": "IN",
    "country": "USA",
    "zip": "47933",
    "phone": "(765) 362- 4618",
    "website": "https://carnegiemuseum.in.gov/",
    "admittancePolicy": "Museum is free; Passport visitors receive a 10% discount in gift shop per card.",
    "proofOfResidenceRequired": false,
    "latitude": 40.0396477,
    "longitude": -86.9010044,
    "discountType": "free",
    "specialNotes": ""
  },
  {
    "id": "evansville-museum-of-arts-history-and-science",
    "name": "Evansville Museum of Arts, History and Science",
    "address": "411 SE Riverside Dr",
    "city": "Evansville",
    "state": "IN",
    "country": "USA",
    "zip": "47713",
    "phone": "(812) 425- 2406",
    "website": "https://emuseum.org/",
    "admittancePolicy": "All family members living in the same household. Planetarium shows are not included.",
    "proofOfResidenceRequired": true,
    "latitude": 37.965783,
    "longitude": -87.572901,
    "discountType": "free",
    "specialNotes": ""
  },
  {
    "id": "imagination-station",
    "name": "Imagination Station",
    "address": "600 N 4th St",
    "city": "Lafayette",
    "state": "IN",
    "country": "USA",
    "zip": "47901",
    "phone": "(765) 420- 7780",
    "website": "https://www.imagination-station.org/",
    "admittancePolicy": "Two adults and up to four children under 18.",
    "proofOfResidenceRequired": false,
    "latitude": 40.422843,
    "longitude": -86.893216,
    "discountType": "free",
    "specialNotes": ""
  },
  {
    "id": "indiana-state-museum-and-historic-sites",
    "name": "Indiana State Museum and Historic Sites",
    "address": "650 W Washington St",
    "city": "Indianapolis",
    "state": "IN",
    "country": "USA",
    "zip": "46204",
    "phone": "(317) 232- 1637",
    "website": "https://www.indianamuseum.org/",
    "admittancePolicy": "Two adults and all children in household, ages 18 and younger.",
    "proofOfResidenceRequired": true,
    "latitude": 39.7688297,
    "longitude": -86.1693361,
    "discountType": "free",
    "specialNotes": ""
  },
  {
    "id": "minnetrista-museum-gardens",
    "name": "Minnetrista Museum & Gardens",
    "address": "1200 N Minnetrista Pkwy",
    "city": "Muncie",
    "state": "IN",
    "country": "USA",
    "zip": "47303",
    "phone": "(765) 282- 4848",
    "website": "https://minnetrista.net/",
    "admittancePolicy": "Two adults and all children in their household under 18.",
    "proofOfResidenceRequired": false,
    "latitude": 40.2049649,
    "longitude": -85.3887727,
    "discountType": "free",
    "specialNotes": ""
  },
  {
    "id": "muncie-children-s-museum",
    "name": "Muncie Children's Museum",
    "address": "515 S High St",
    "city": "Muncie",
    "state": "IN",
    "country": "USA",
    "zip": "47305",
    "phone": "(765) 286- 1660",
    "website": "https://www.munciemuseum.com",
    "admittancePolicy": "Two adults living at the same address and their children.",
    "proofOfResidenceRequired": false,
    "latitude": 40.1896972,
    "longitude": -85.3880798,
    "discountType": "free",
    "specialNotes": ""
  },
  {
    "id": "science-central",
    "name": "Science Central",
    "address": "1950 North Clinton Street",
    "city": "Fort Wayne",
    "state": "IN",
    "country": "USA",
    "zip": "46805",
    "phone": "(260) 424- 2400",
    "website": "https://www.sciencecentral.org/",
    "admittancePolicy": "Immediate family, at the same address, up to 6 people.",
    "proofOfResidenceRequired": false,
    "latitude": 41.0918451,
    "longitude": -85.1394208,
    "discountType": "free",
    "specialNotes": ""
  },
  {
    "id": "terre-haute-children-s-museum",
    "name": "Terre Haute Children's Museum",
    "address": "727 Wabash Ave",
    "city": "Terre Haute",
    "state": "IN",
    "country": "USA",
    "zip": "47807",
    "phone": "(812) 235- 5548",
    "website": "https://thchildrensmuseum.com/",
    "admittancePolicy": "Two adults and member’s children or grandchildren 18 or younger. Proof of valid membership and photo ID are required to receive complimentary basic admission. Special exhibitions and Ropes Challenge Course are not included.",
    "proofOfResidenceRequired": true,
    "latitude": 39.4662084,
    "longitude": -87.4059913,
    "discountType": "free",
    "specialNotes": ""
  },
  {
    "id": "technology",
    "name": "Technology",
    "address": "308 W. 4th Street",
    "city": "Bloomington",
    "state": "IN",
    "country": "USA",
    "zip": "47404",
    "phone": "(812) 337- 1337",
    "website": "https://www.wonderlab.org/",
    "admittancePolicy": "Free admission for up to five visitors from same household. Extra visitors pay general admission rates.",
    "proofOfResidenceRequired": false,
    "latitude": 39.1659062,
    "longitude": -86.5366563,
    "discountType": "free",
    "specialNotes": ""
  },
  {
    "id": "family-museum",
    "name": "Family Museum",
    "address": "2900 Learning Campus Dr",
    "city": "Bettendorf",
    "state": "IA",
    "country": "USA",
    "zip": "52722",
    "phone": "(563) 344- 4106",
    "website": "https://familymuseum.org/",
    "admittancePolicy": "Two adults and children (under 18) residing in the same household.",
    "proofOfResidenceRequired": true,
    "latitude": 41.551209,
    "longitude": -90.503335,
    "discountType": "free",
    "specialNotes": ""
  },
  {
    "id": "imaginarium",
    "name": "Imaginarium",
    "address": "322 Washington St",
    "city": "Waterloo",
    "state": "IA",
    "country": "USA",
    "zip": "50701",
    "phone": "(319) 234- 6357",
    "website": "https://www.groutmuseumdistrict.org",
    "admittancePolicy": "Membership holder and immediate family.",
    "proofOfResidenceRequired": false,
    "latitude": 42.4946818,
    "longitude": -92.3456329,
    "discountType": "free",
    "specialNotes": ""
  },
  {
    "id": "launchpad-children-s-museum",
    "name": "LaunchPAD Children's Museum",
    "address": "623 Pearl St",
    "city": "Sioux City",
    "state": "IA",
    "country": "USA",
    "zip": "51101",
    "phone": "(712) 224- 2542",
    "website": "https://launchpadmuseum.com/",
    "admittancePolicy": "Up to two adults and six children.",
    "proofOfResidenceRequired": false,
    "latitude": 42.4971416,
    "longitude": -96.4083754,
    "discountType": "free",
    "specialNotes": ""
  },
  {
    "id": "putnam-museum-and-science-center",
    "name": "Putnam Museum and Science Center",
    "address": "1717 W 12th St",
    "city": "Davenport",
    "state": "IA",
    "country": "USA",
    "zip": "52804",
    "phone": "(563) 324- 1933",
    "website": "https://www.putnam.org/",
    "admittancePolicy": "Two adults and three children living at the home address. Free admission does not include theater.",
    "proofOfResidenceRequired": false,
    "latitude": 41.5315836,
    "longitude": -90.6026885,
    "discountType": "free",
    "specialNotes": ""
  },
  {
    "id": "science-center-of-iowa",
    "name": "Science Center of Iowa",
    "address": "401 Martin Luther King Jr Pkwy",
    "city": "Des Moines",
    "state": "IA",
    "country": "USA",
    "zip": "50309",
    "phone": "(515) 274- 6868",
    "website": "https://www.sciowa.org/",
    "admittancePolicy": "Free admission for up to four visitors in the same household. Additional visitors pay general admission rates.",
    "proofOfResidenceRequired": true,
    "latitude": 41.5839883,
    "longitude": -93.6450192,
    "discountType": "free",
    "specialNotes": ""
  },
  {
    "id": "cosmosphere",
    "name": "Cosmosphere",
    "address": "1100 North Plum Street",
    "city": "Hutchinson",
    "state": "KS",
    "country": "USA",
    "zip": "67501",
    "phone": "(620) 665- 9312",
    "website": "https://cosmo.org/",
    "admittancePolicy": "Free admission to the Hall of Space Museum and CosmoKids for families with a membership to a Passport participating institution.",
    "proofOfResidenceRequired": false,
    "latitude": 38.0656146,
    "longitude": -97.9215877,
    "discountType": "free",
    "specialNotes": ""
  },
  {
    "id": "and-discovery-center",
    "name": "and Discovery Center",
    "address": "300 N McLean Blvd",
    "city": "Wichita",
    "state": "KS",
    "country": "USA",
    "zip": "67203",
    "phone": "(316) 660- 0600",
    "website": "https://exploration.org/",
    "admittancePolicy": "Two adults in the same household and all dependent children under 18/unmarried grandchildren under 18. Free admission limited to general exhibit areas; does not include dome shows, live science shows or special exhibits with an additional fee.",
    "proofOfResidenceRequired": true,
    "latitude": 37.6886981,
    "longitude": -97.3484893,
    "discountType": "free",
    "specialNotes": ""
  },
  {
    "id": "flint-hills-discovery-center",
    "name": "Flint Hills Discovery Center",
    "address": "315 S 3rd St",
    "city": "Manhattan",
    "state": "KS",
    "country": "USA",
    "zip": "66502",
    "phone": "(785) 587- 2726",
    "website": "https://www.flinthillsdiscovery.org/847/2025-",
    "admittancePolicy": "Two adults and up to four children (17 and under) residing in the same household. One adult cardholder must be present. Photo ID and membership card required at check in.",
    "proofOfResidenceRequired": true,
    "latitude": 39.176602,
    "longitude": -96.5600188,
    "discountType": "free",
    "specialNotes": ""
  },
  {
    "id": "sternberg-museum-of-natural-history",
    "name": "Sternberg Museum of Natural History",
    "address": "3000 Sternberg Dr",
    "city": "Hays",
    "state": "KS",
    "country": "USA",
    "zip": "67601",
    "phone": "(785) 628- 4286",
    "website": "https://sternberg.fhsu.edu/",
    "admittancePolicy": "Two adults and children 17 and under residing in the same household, or two grandparents and grandchildren 17 and under.",
    "proofOfResidenceRequired": false,
    "latitude": 38.8894441,
    "longitude": -99.2997876,
    "discountType": "free",
    "specialNotes": ""
  },
  {
    "id": "strataca",
    "name": "Strataca",
    "address": "3650 E. Ave. G",
    "city": "Hutchinson",
    "state": "KS",
    "country": "USA",
    "zip": "67501",
    "phone": "(620) 662- 1425",
    "website": "https://underkansas.org/",
    "admittancePolicy": "Free admission for the gallery tour 650 ft underground with a membership to a participating Passport institution. Must be 4 years of age or older, provide proof of membership, and show ID. Rides not included.",
    "proofOfResidenceRequired": true,
    "latitude": 38.0435192,
    "longitude": -97.8676811,
    "discountType": "free",
    "specialNotes": ""
  },
  {
    "id": "university-of-kansas-natural-history-museum",
    "name": "University of Kansas Natural History Museum",
    "address": "1345 Jayhawk Blvd",
    "city": "Lawrence",
    "state": "KS",
    "country": "USA",
    "zip": "66045",
    "phone": "(785) 864- 4450",
    "website": "https://biodiversity.ku.edu/",
    "admittancePolicy": "All members of a single household.",
    "proofOfResidenceRequired": false,
    "latitude": 38.9585703,
    "longitude": -95.2437648,
    "discountType": "free",
    "specialNotes": ""
  },
  {
    "id": "planetarium",
    "name": "Planetarium",
    "address": "1 Bert Combs Dr",
    "city": "Prestonsburg",
    "state": "KY",
    "country": "USA",
    "zip": "41653",
    "phone": "(606) 889- 8260",
    "website": "https://bigsandy.kctcs.edu/community/eksc/index.",
    "admittancePolicy": "Free admission for up to four family members.",
    "proofOfResidenceRequired": false,
    "latitude": 37.6878617,
    "longitude": -82.7772419,
    "discountType": "free",
    "specialNotes": ""
  },
  {
    "id": "highlands-museum-and-discovery-center",
    "name": "Highlands Museum and Discovery Center",
    "address": "1620 Winchester Avenue",
    "city": "Ashland",
    "state": "KY",
    "country": "USA",
    "zip": "41101",
    "phone": "(606) 329- 8888",
    "website": "https://highlandsmuseum.com/",
    "admittancePolicy": "Immediate family living in one household.",
    "proofOfResidenceRequired": false,
    "latitude": 38.4781022,
    "longitude": -82.6392194,
    "discountType": "free",
    "specialNotes": ""
  },
  {
    "id": "hopewell-museum",
    "name": "Hopewell Museum",
    "address": "800 Pleasant Street",
    "city": "Paris",
    "state": "KY",
    "country": "USA",
    "zip": "40361",
    "phone": "(859) 987- 7274",
    "website": "https://www.hopewellmuseum.org/",
    "admittancePolicy": "Two adults and children or grandchildren under 18.",
    "proofOfResidenceRequired": false,
    "latitude": 38.208975,
    "longitude": -84.251528,
    "discountType": "free",
    "specialNotes": ""
  },
  {
    "id": "kentucky-science-center",
    "name": "Kentucky Science Center",
    "address": "727 W Main St",
    "city": "Louisville",
    "state": "KY",
    "country": "USA",
    "zip": "40202",
    "phone": "(502) 561- 6100",
    "website": "https://kysciencecenter.org/",
    "admittancePolicy": "Two adults and up to four children, 18 and under, listed on the membership card.",
    "proofOfResidenceRequired": true,
    "latitude": 38.2576533,
    "longitude": -85.7625562,
    "discountType": "free",
    "specialNotes": ""
  },
  {
    "id": "owensboro-museum-of-science-and-history",
    "name": "Owensboro Museum of Science and History",
    "address": "122 E 2nd St",
    "city": "Owensboro",
    "state": "KY",
    "country": "USA",
    "zip": "42303",
    "phone": "(270) 687- 2732",
    "website": "https://owensboromuseum.org/",
    "admittancePolicy": "Family up to six members. Exhibit hall fee waived and 10% discount on museum store purchases.",
    "proofOfResidenceRequired": false,
    "latitude": 37.7746413,
    "longitude": -87.1102319,
    "discountType": "free",
    "specialNotes": ""
  },
  {
    "id": "river-discovery-center",
    "name": "River Discovery Center",
    "address": "117 South Water Street",
    "city": "Paducah",
    "state": "KY",
    "country": "USA",
    "zip": "42001",
    "phone": "(270) 575- 9958",
    "website": "https://www.riverdiscoverycenter.org/",
    "admittancePolicy": "Up to two adults and up to four children under 18 in the household. Must provide proof of membership and show ID.",
    "proofOfResidenceRequired": false,
    "latitude": 37.0877592,
    "longitude": -88.5947508,
    "discountType": "free",
    "specialNotes": ""
  },
  {
    "id": "the-aviation-museum-of-kentucky",
    "name": "The Aviation Museum of Kentucky",
    "address": "4029 Airport Rd",
    "city": "Lexington",
    "state": "KY",
    "country": "USA",
    "zip": "40510",
    "phone": "(859) 231- 1219",
    "website": "https://www.aviationky.org/",
    "admittancePolicy": "Up to four people in the same household; at least one must be named on membership card.",
    "proofOfResidenceRequired": true,
    "latitude": 38.0326441,
    "longitude": -84.5989808,
    "discountType": "free",
    "specialNotes": ""
  },
  {
    "id": "the-living-arts-science-center",
    "name": "The Living Arts & Science Center",
    "address": "362 N Martin Luther King Blvd",
    "city": "Lexington",
    "state": "KY",
    "country": "USA",
    "zip": "40508",
    "phone": "(859) 252- 5222",
    "website": "https://lasclex.org/",
    "admittancePolicy": "Two adults and all children living in the same household, free; Passport visitors receive a 10% discount on museum store purchases.",
    "proofOfResidenceRequired": true,
    "latitude": 38.0487541,
    "longitude": -84.4886309,
    "discountType": "free",
    "specialNotes": ""
  },
  {
    "id": "louisiana-art-and-science-museum",
    "name": "Louisiana Art and Science Museum",
    "address": "100 River Rd S",
    "city": "Baton Rouge",
    "state": "LA",
    "country": "USA",
    "zip": "70802",
    "phone": "(225) 344- 5272",
    "website": "https://www.lasm.org/",
    "admittancePolicy": "Free admission to museum galleries and planetarium shows, and discounted admission to special events and exhibits for up to six people.",
    "proofOfResidenceRequired": false,
    "latitude": 30.4461484,
    "longitude": -91.1903823,
    "discountType": "free",
    "specialNotes": ""
  },
  {
    "id": "louisiana-children-s-museum",
    "name": "Louisiana Children's Museum",
    "address": "15 Henry Thomas Drive",
    "city": "New Orleans",
    "state": "LA",
    "country": "USA",
    "zip": "70124",
    "phone": "(504) 523- 1357",
    "website": "https://www.lcm.org/",
    "admittancePolicy": "Number of visitors admitted by home museum membership (up to 8 people).",
    "proofOfResidenceRequired": false,
    "latitude": 29.9899495,
    "longitude": -90.0940194,
    "discountType": "free",
    "specialNotes": ""
  },
  {
    "id": "sci-port-discovery-center",
    "name": "Sci-Port Discovery Center",
    "address": "820 Clyde Fant Pkwy",
    "city": "Shreveport",
    "state": "LA",
    "country": "USA",
    "zip": "71101",
    "phone": "(318) 424- 3466",
    "website": "https://sci-port.org/",
    "admittancePolicy": "Four people, including at least one adult, residing in the same household. Must present photo ID. Does not include IMAX. Membership expiration date information is required.",
    "proofOfResidenceRequired": true,
    "latitude": 32.5140487,
    "longitude": -93.7420937,
    "discountType": "free",
    "specialNotes": ""
  },
  {
    "id": "museum",
    "name": "Museum",
    "address": "433 Jefferson Street",
    "city": "Lafayette",
    "state": "LA",
    "country": "USA",
    "zip": "70501",
    "phone": "(337) 291- 5544",
    "website": "https://lafayettesciencemuseum.org/",
    "admittancePolicy": "Free admission for cardholder and three additional people. Children 2 and under are free.",
    "proofOfResidenceRequired": true,
    "latitude": 30.2254865,
    "longitude": -92.0177951,
    "discountType": "free",
    "specialNotes": ""
  },
  {
    "id": "maine-discovery-museum",
    "name": "Maine Discovery Museum",
    "address": "74 Main Street",
    "city": "Bangor",
    "state": "ME",
    "country": "USA",
    "zip": "04401",
    "phone": "(207) 262- 7200",
    "website": "https://www.mainediscoverymuseum.org/",
    "admittancePolicy": "Up to four people. One adult must be listed on the membership card and present photo ID. Good for general admission only.",
    "proofOfResidenceRequired": true,
    "latitude": 44.8000484,
    "longitude": -68.7718202,
    "discountType": "free",
    "specialNotes": ""
  },
  {
    "id": "owls-head-transportation-museum",
    "name": "Owls Head Transportation Museum",
    "address": "117 Museum St. PO Box 277",
    "city": "Owls Head",
    "state": "ME",
    "country": "USA",
    "zip": "04854",
    "phone": "(207) 594- 4418",
    "website": "https://owlshead.org/default.aspx",
    "admittancePolicy": "Free admission for TWO ADULTS to the Exhibit Halls (special events are not included) with a membership from a participating ASTC institution. The individual must be named on the membership card. Proof of residence is required.",
    "proofOfResidenceRequired": true,
    "latitude": 44.0663442,
    "longitude": -69.1009464,
    "discountType": "free",
    "specialNotes": ""
  },
  {
    "id": "college-park-aviation-museum",
    "name": "College Park Aviation Museum",
    "address": "1985 Corporal Frank Scott Drive",
    "city": "College Park",
    "state": "MD",
    "country": "USA",
    "zip": "",
    "phone": "(301) 864- 6029",
    "website": "https://www.pgparks.com/facilities/college-park-",
    "admittancePolicy": "Up to four children ages 1-17; unlimited adults.",
    "proofOfResidenceRequired": false,
    "latitude": 38.978837,
    "longitude": -76.9222549,
    "discountType": "free",
    "specialNotes": ""
  },
  {
    "id": "discovery-station-at-hagerstown",
    "name": "Discovery Station at Hagerstown",
    "address": "101 W Washington Street",
    "city": "Hagerstown",
    "state": "MD",
    "country": "USA",
    "zip": "21740",
    "phone": "(301) 790- 0076",
    "website": "https://discoverystation.org/",
    "admittancePolicy": "Up to eight people (adults and children) as listed on the membership card.",
    "proofOfResidenceRequired": false,
    "latitude": 39.6430116,
    "longitude": -77.7230886,
    "discountType": "free",
    "specialNotes": ""
  },
  {
    "id": "maryland-science-center",
    "name": "Maryland Science Center",
    "address": "601 Light St",
    "city": "Baltimore",
    "state": "MD",
    "country": "USA",
    "zip": "21230",
    "phone": "(410) 685- 2370",
    "website": "https://www.mdsci.org/",
    "admittancePolicy": "Visitors show their member card and out-of-state photo ID. Four people, one of whom must be a cardholder. Free admission limited to permanent museum galleries only. Fees will be assessed for IMAX tickets and certain traveling exhibits. Reciprocal admission is not valid for Maryland residents presenting their out-of-state Passport-affiliated member card. Children under three years old are free for all and do not count toward your member admissions.",
    "proofOfResidenceRequired": true,
    "latitude": 39.2815216,
    "longitude": -76.6121715,
    "discountType": "free",
    "specialNotes": ""
  },
  {
    "id": "berkshire-museum",
    "name": "Berkshire Museum",
    "address": "39 South St",
    "city": "Pittsfield",
    "state": "MA",
    "country": "USA",
    "zip": "01201",
    "phone": "(413) 443- 7171",
    "website": "https://berkshiremuseum.org/",
    "admittancePolicy": "Two adults named on card (photo ID required) and up to four children under",
    "proofOfResidenceRequired": true,
    "latitude": 42.4473381,
    "longitude": -73.2538309,
    "discountType": "free",
    "specialNotes": ""
  },
  {
    "id": "ecotarium",
    "name": "EcoTarium",
    "address": "222 Harrington Way",
    "city": "Worcester",
    "state": "MA",
    "country": "USA",
    "zip": "01604",
    "phone": "(508) 929- 2700",
    "website": "https://ecotarium.org/",
    "admittancePolicy": "Free general admission for up to four guests. At least one person must be named on the membership card presented. One guest must be at least 14 or older.",
    "proofOfResidenceRequired": true,
    "latitude": 42.2644394,
    "longitude": -71.7667726,
    "discountType": "free",
    "specialNotes": ""
  },
  {
    "id": "harvard-museums-of-science-culture",
    "name": "Harvard Museums of Science & Culture",
    "address": "26 Oxford St",
    "city": "Cambridge",
    "state": "MA",
    "country": "USA",
    "zip": "02138",
    "phone": "(617) 495- 3045",
    "website": "https://hmsc.harvard.edu/",
    "admittancePolicy": "Two adults and two children living at the same address, one adult named on the membership card.",
    "proofOfResidenceRequired": true,
    "latitude": 42.3782074,
    "longitude": -71.1154484,
    "discountType": "free",
    "specialNotes": ""
  },
  {
    "id": "museum-of-science-boston",
    "name": "Museum of Science, Boston",
    "address": "1 Science Park",
    "city": "Boston",
    "state": "MA",
    "country": "USA",
    "zip": "02114",
    "phone": "(617) 723- 2500",
    "website": "https://www.mos.org/",
    "admittancePolicy": "Up to four individuals. One of the individuals must be named on your membership card. Children under three are always free. Exhibit Halls admission only; no other discounts apply.",
    "proofOfResidenceRequired": false,
    "latitude": 42.3674305,
    "longitude": -71.071098,
    "discountType": "free",
    "specialNotes": ""
  },
  {
    "id": "springfield-museums",
    "name": "Springfield Museums",
    "address": "21 Edwards St",
    "city": "Springfield",
    "state": "MA",
    "country": "USA",
    "zip": "01103",
    "phone": "(413) 263- 6800",
    "website": "https://springfieldmuseums.org/",
    "admittancePolicy": "Two adults and up to four children living at the same address. Free general admission only; does not include special exhibit or planetarium fees.",
    "proofOfResidenceRequired": false,
    "latitude": 42.1043686,
    "longitude": -72.5863149,
    "discountType": "free",
    "specialNotes": ""
  },
  {
    "id": "science-discovery-center",
    "name": "Science Discovery Center",
    "address": "15 School Street",
    "city": "Ocean Science Discovery Center",
    "state": "MASSACHUSETTS",
    "country": "USA",
    "zip": "",
    "phone": "(508) 289- 2663",
    "website": "https://www.whoi.edu/",
    "admittancePolicy": "Two adults and two children. Passport visitors receive 10% discount on museum shop purchases.",
    "proofOfResidenceRequired": false,
    "latitude": 41.5265,
    "longitude": -70.6711,
    "discountType": "free",
    "specialNotes": ""
  },
  {
    "id": "air-zoo",
    "name": "Air Zoo",
    "address": "6151 Portage Rd",
    "city": "Portage",
    "state": "MI",
    "country": "USA",
    "zip": "49002",
    "phone": "(269) 382- 6555",
    "website": "https://www.airzoo.org/",
    "admittancePolicy": "Two adults and all children under 17 living in the same household. Accepts both physical and digital cards as proof of membership.",
    "proofOfResidenceRequired": true,
    "latitude": 42.2426735,
    "longitude": -85.5600564,
    "discountType": "free",
    "specialNotes": ""
  },
  {
    "id": "alden-b-dow-museum-of-science-art",
    "name": "Alden B. Dow Museum of Science & Art",
    "address": "1801 W Saint Andrews Rd",
    "city": "Midland",
    "state": "MI",
    "country": "USA",
    "zip": "48640",
    "phone": "(989) 631- 5930",
    "website": "https://www.midlandcenter.org/",
    "admittancePolicy": "Two adult members (parents or grandparents) and two children or grandchildren 18 and younger will receive member rates to traveling exhibitions and special events.",
    "proofOfResidenceRequired": false,
    "latitude": 43.6244381,
    "longitude": -84.2497164,
    "discountType": "free",
    "specialNotes": ""
  },
  {
    "id": "ann-arbor-hands-on-museum",
    "name": "Ann Arbor Hands-On Museum",
    "address": "220 E Ann St",
    "city": "Ann Arbor",
    "state": "MI",
    "country": "USA",
    "zip": "48104",
    "phone": "(734) 995- 5439",
    "website": "https://discoverscienceandnature.org/",
    "admittancePolicy": "Two adults named on the card (photo ID required) and their children and grandparents, or two grandparents named on the card (photo ID required) and their adult children and grandchildren. Named member must be present.",
    "proofOfResidenceRequired": false,
    "latitude": 42.2817132,
    "longitude": -83.7465426,
    "discountType": "free",
    "specialNotes": ""
  },
  {
    "id": "cranbrook-institute-of-science",
    "name": "Cranbrook Institute of Science",
    "address": "39221 Woodward Ave",
    "city": "Bloomfield",
    "state": "MI",
    "country": "USA",
    "zip": "48304",
    "phone": "(248) 645- 3245",
    "website": "https://science.cranbrook.edu/",
    "admittancePolicy": "Two adults and all children under 18 living in the same household, or two grandparents and all grandchildren under 18.",
    "proofOfResidenceRequired": false,
    "latitude": 42.5722842,
    "longitude": -83.2446653,
    "discountType": "free",
    "specialNotes": ""
  },
  {
    "id": "michigan-science-center",
    "name": "Michigan Science Center",
    "address": "5020 John R St",
    "city": "Detroit",
    "state": "MI",
    "country": "USA",
    "zip": "48202",
    "phone": "(313) 577- 8400",
    "website": "https://www.mi-sci.org/",
    "admittancePolicy": "General admission for up to five people living in the same household; does not include paid theaters and special exhibitions.",
    "proofOfResidenceRequired": true,
    "latitude": 42.3583381,
    "longitude": -83.061992,
    "discountType": "free",
    "specialNotes": ""
  },
  {
    "id": "planetarium-flint-mi",
    "name": "Planetarium",
    "address": "1221 E Kearsley St",
    "city": "Flint",
    "state": "MI",
    "country": "USA",
    "zip": "48503",
    "phone": "(810) 237- 3450",
    "website": "https://sloanlongway.org/",
    "admittancePolicy": "One household (immediate family) with one, but no more than two, adults and all children 18 and under, or two grandparents and all their grandchildren 18 and under. Passport visitors may pay an additional fee for Sloan Museum temporary exhibits and shows at Longway Planetarium, 1310 East Kearsley Street, Flint, MI",
    "proofOfResidenceRequired": false,
    "latitude": 43.0232574,
    "longitude": -83.6788633,
    "discountType": "free",
    "specialNotes": ""
  },
  {
    "id": "university-of-michigan-museum-of-natural-history",
    "name": "University of Michigan Museum of Natural History",
    "address": "Biological Sciences Building",
    "city": "1105 N University Ave",
    "state": "MICHIGAN",
    "country": "USA",
    "zip": "",
    "phone": "(734) 764- 0478",
    "website": "https://lsa.umich.edu/ummnh",
    "admittancePolicy": "Museum is free; Passport visitors receive a 10% discount on museum store purchases.",
    "proofOfResidenceRequired": false,
    "latitude": 42.2789993,
    "longitude": -83.734498,
    "discountType": "free",
    "specialNotes": ""
  },
  {
    "id": "uss-silversides-submarine-museum",
    "name": "USS Silversides Submarine Museum",
    "address": "1346 Bluff Street",
    "city": "Muskegon",
    "state": "MI",
    "country": "USA",
    "zip": "49441",
    "phone": "(231) 755- 1230",
    "website": "https://silversidesmuseum.org/",
    "admittancePolicy": "Family of four or fewer; two adults, two children.",
    "proofOfResidenceRequired": false,
    "latitude": 43.2342,
    "longitude": -86.2484,
    "discountType": "free",
    "specialNotes": ""
  },
  {
    "id": "bell-museum",
    "name": "Bell Museum",
    "address": "2088 Larpenteur Ave W",
    "city": "Saint Paul",
    "state": "MN",
    "country": "USA",
    "zip": "55113",
    "phone": "(612) 626- 9660",
    "website": "https://www.bellmuseum.umn.edu/",
    "admittancePolicy": "Free general gallery admission for two adults and their dependent children/grandchildren 21 and under (up to four children). Planetarium shows are not included.",
    "proofOfResidenceRequired": true,
    "latitude": 44.9911746,
    "longitude": -93.1881129,
    "discountType": "free",
    "specialNotes": ""
  },
  {
    "id": "duluth-children-s-museum",
    "name": "Duluth Children's Museum",
    "address": "2125 West Superior Street",
    "city": "Duluth",
    "state": "MN",
    "country": "USA",
    "zip": "55806",
    "phone": "(218) 733- 7543",
    "website": "https://www.duluthchildrensmuseum.org/",
    "admittancePolicy": "Two adults and all children in the same household; two adults and all grandchildren under one membership.",
    "proofOfResidenceRequired": true,
    "latitude": 46.7663658,
    "longitude": -92.1254911,
    "discountType": "free",
    "specialNotes": ""
  },
  {
    "id": "headwaters-science-center",
    "name": "Headwaters Science Center",
    "address": "413 Beltrami Ave NW",
    "city": "Bemidji",
    "state": "MN",
    "country": "USA",
    "zip": "56601",
    "phone": "(218) 444- 4472",
    "website": "https://www.hscbemidji.org/",
    "admittancePolicy": "Parents with up to eight children living in the same household or Grandparents and all of their grandchildren 17 and younger.",
    "proofOfResidenceRequired": true,
    "latitude": 47.4722055,
    "longitude": -94.8814809,
    "discountType": "free",
    "specialNotes": ""
  },
  {
    "id": "historical-and-cultural-society-of-clay-county",
    "name": "Historical and Cultural Society of Clay County",
    "address": "202 1st Ave N",
    "city": "Hjemkomst Center",
    "state": "Moorhead",
    "country": "USA",
    "zip": "",
    "phone": "(218) 299- 5511",
    "website": "http://www.hcscconline.org/",
    "admittancePolicy": "Two parents and their children 17 and under. Includes Viking Ship, Stave Church, and history and traveling exhibits.",
    "proofOfResidenceRequired": false,
    "latitude": 46.8780358,
    "longitude": -96.7779862,
    "discountType": "free",
    "specialNotes": ""
  },
  {
    "id": "lake-superior-zoo",
    "name": "Lake Superior Zoo",
    "address": "7210 Fremont Street",
    "city": "Duluth",
    "state": "MN",
    "country": "USA",
    "zip": "55807",
    "phone": "(218) 730- 4500",
    "website": "https://lszooduluth.org/",
    "admittancePolicy": "One or two adults named on the card residing at the same address and their children under 18.",
    "proofOfResidenceRequired": true,
    "latitude": 46.7260553,
    "longitude": -92.1896124,
    "discountType": "free",
    "specialNotes": ""
  },
  {
    "id": "minnesota-children-s-museum",
    "name": "Minnesota Children's Museum",
    "address": "10 7th St W",
    "city": "Saint Paul",
    "state": "MN",
    "country": "USA",
    "zip": "55102",
    "phone": "(651) 225- 6000",
    "website": "https://mcm.org/",
    "admittancePolicy": "Two adults and up to four children from the same household. One adult present must be named on the participating institution’s membership card.",
    "proofOfResidenceRequired": true,
    "latitude": 44.9479473,
    "longitude": -93.0977119,
    "discountType": "free",
    "specialNotes": ""
  },
  {
    "id": "pavek-museum-of-electronic-communication",
    "name": "Pavek Museum of Electronic Communication",
    "address": "3517 Raleigh Avenue",
    "city": "St. Louis Park",
    "state": "MN",
    "country": "USA",
    "zip": "",
    "phone": "(952) 926- 8198",
    "website": "https://www.pavekmuseum.org/",
    "admittancePolicy": "ASTC individual members + 1 guest are free and families of 3-6 are free with an ASTC member included.",
    "proofOfResidenceRequired": false,
    "latitude": 44.9390831,
    "longitude": -93.3437006,
    "discountType": "free",
    "specialNotes": ""
  },
  {
    "id": "science-museum-of-minnesota",
    "name": "Science Museum of Minnesota",
    "address": "120 Kellogg Blvd W",
    "city": "Saint Paul",
    "state": "MN",
    "country": "USA",
    "zip": "55102",
    "phone": "(651) 221- 9444",
    "website": "https://new.smm.org/",
    "admittancePolicy": "Two adults and dependents under 21.",
    "proofOfResidenceRequired": false,
    "latitude": 44.9436976,
    "longitude": -93.0951177,
    "discountType": "free",
    "specialNotes": ""
  },
  {
    "id": "the-bakken-museum",
    "name": "The Bakken Museum",
    "address": "3537 Zenith Ave S",
    "city": "Minneapolis",
    "state": "MN",
    "country": "USA",
    "zip": "55416",
    "phone": "(612) 926- 3878",
    "website": "https://thebakken.org/",
    "admittancePolicy": "Up to four people in one household. Photo ID required.",
    "proofOfResidenceRequired": true,
    "latitude": 44.9386018,
    "longitude": -93.3217241,
    "discountType": "free",
    "specialNotes": ""
  },
  {
    "id": "the-works-museum",
    "name": "The Works Museum",
    "address": "9740 Grand Ave S",
    "city": "Bloomington",
    "state": "MN",
    "country": "USA",
    "zip": "55420",
    "phone": "(952) 888- 4262",
    "website": "https://theworks.org/",
    "admittancePolicy": "Two adults and their children under 18 within household.",
    "proofOfResidenceRequired": true,
    "latitude": 44.8271333,
    "longitude": -93.2863348,
    "discountType": "free",
    "specialNotes": ""
  },
  {
    "id": "mississippi-museum-of-natural-science",
    "name": "Mississippi Museum of Natural Science",
    "address": "2148 Riverside Dr",
    "city": "Jackson",
    "state": "MS",
    "country": "USA",
    "zip": "39202",
    "phone": "(601) 576- 6000",
    "website": "https://www.mdwfp.com/location/museum-natural-science",
    "admittancePolicy": "Two adults and up to four children from the same household. One adult present must be named on the participating institution’s membership card.",
    "proofOfResidenceRequired": false,
    "latitude": 32.3241473,
    "longitude": -90.1565185,
    "discountType": "free",
    "specialNotes": ""
  },
  {
    "id": "bootheel-youth-museum",
    "name": "Bootheel Youth Museum",
    "address": "700A N Douglass St",
    "city": "Malden",
    "state": "MO",
    "country": "USA",
    "zip": "63863",
    "phone": "(573) 276- 3600",
    "website": "https://www.bootheelyouthmuseum.org/",
    "admittancePolicy": "Two adults and all children under 18 in household.",
    "proofOfResidenceRequired": false,
    "latitude": 36.5664146,
    "longitude": -89.9699042,
    "discountType": "free",
    "specialNotes": ""
  },
  {
    "id": "discovery-center-of-springfield",
    "name": "Discovery Center of Springfield",
    "address": "438 E Saint Louis St",
    "city": "Springfield",
    "state": "MO",
    "country": "USA",
    "zip": "65806",
    "phone": "",
    "website": "https://www.discoverycenter.org/",
    "admittancePolicy": "Admits all members named on home museum's membership cards. Additional guests must pay admission.",
    "proofOfResidenceRequired": true,
    "latitude": 37.2085043,
    "longitude": -93.2886798,
    "discountType": "free",
    "specialNotes": ""
  },
  {
    "id": "saint-louis-science-center",
    "name": "Saint Louis Science Center",
    "address": "5050 Oakland Ave",
    "city": "Saint Louis",
    "state": "MO",
    "country": "USA",
    "zip": "63110",
    "phone": "(314) 289- 4400",
    "website": "https://www.slsc.org/",
    "admittancePolicy": "Museum is free; Passport visitors with a valid membership card receive $1 off parking, $1 off Discovery Room tickets, $1 off James S. McDonnell Planetarium Star Show tickets, $1 off OMNIMAX® Theater, and discounted tickets to Special Exhibitions.",
    "proofOfResidenceRequired": true,
    "latitude": 38.6296833,
    "longitude": -90.2705294,
    "discountType": "free",
    "specialNotes": ""
  },
  {
    "id": "science-city-at-union-station",
    "name": "Science City at Union Station",
    "address": "30 W Pershing Rd",
    "city": "Kansas City",
    "state": "MO",
    "country": "USA",
    "zip": "64108",
    "phone": "(816) 460- 2020",
    "website": "https://unionstation.org/",
    "admittancePolicy": "Number of people on membership, e.g., family of four plus $1 off per planetarium tickets. Free admission limited to Science City.",
    "proofOfResidenceRequired": false,
    "latitude": 39.0853037,
    "longitude": -94.5857704,
    "discountType": "free",
    "specialNotes": ""
  },
  {
    "id": "american-computer-robotics-museum",
    "name": "American Computer & Robotics Museum",
    "address": "2023 Stadium Dr",
    "city": "Bozeman",
    "state": "MT",
    "country": "USA",
    "zip": "59715",
    "phone": "(406) 582- 1288",
    "website": "https://acrmuseum.org/",
    "admittancePolicy": "Two adults and up to four children under 18 in the same household.",
    "proofOfResidenceRequired": false,
    "latitude": 45.659349,
    "longitude": -111.0549735,
    "discountType": "free",
    "specialNotes": ""
  },
  {
    "id": "explorationworks",
    "name": "ExplorationWorks",
    "address": "995 Carousel Way",
    "city": "Helena",
    "state": "MT",
    "country": "USA",
    "zip": "59601",
    "phone": "(406) 457- 1800",
    "website": "https://www.explorationworks.org/",
    "admittancePolicy": "Two adults and their dependent children under 18.",
    "proofOfResidenceRequired": false,
    "latitude": 46.5970084,
    "longitude": -112.0372482,
    "discountType": "free",
    "specialNotes": ""
  },
  {
    "id": "montana-natural-history-center",
    "name": "Montana Natural History Center",
    "address": "120 Hickory St Ste A",
    "city": "Missoula",
    "state": "MT",
    "country": "USA",
    "zip": "59801",
    "phone": "(406) 327- 0405",
    "website": "https://www.montananaturalist.org/",
    "admittancePolicy": "Two adults plus children under 18.",
    "proofOfResidenceRequired": false,
    "latitude": 46.8706187,
    "longitude": -114.005993,
    "discountType": "free",
    "specialNotes": ""
  },
  {
    "id": "museum-of-the-rockies",
    "name": "Museum of the Rockies",
    "address": "600 West Kagy Boulevard",
    "city": "Bozeman",
    "state": "MT",
    "country": "USA",
    "zip": "59717",
    "phone": "(406) 994- 2251",
    "website": "https://www.museumoftherockies.org/",
    "admittancePolicy": "Two adults and children or grandchildren under 18.",
    "proofOfResidenceRequired": false,
    "latitude": 45.658753,
    "longitude": -111.0456355,
    "discountType": "free",
    "specialNotes": ""
  },
  {
    "id": "spectrum-discovery-area",
    "name": "spectrUM Discovery Area",
    "address": "455 E Main St",
    "city": "Missoula",
    "state": "MT",
    "country": "USA",
    "zip": "59802",
    "phone": "(406) 728- 7836",
    "website": "https://www.umt.edu/spectrum/support/members",
    "admittancePolicy": "Free for all.",
    "proofOfResidenceRequired": false,
    "latitude": 46.8696502,
    "longitude": -113.9897736,
    "discountType": "free",
    "specialNotes": ""
  },
  {
    "id": "columbus-area-children-s-museum",
    "name": "Columbus Area Children’s Museum",
    "address": "2500 14th St # 1",
    "city": "Columbus",
    "state": "NE",
    "country": "USA",
    "zip": "68601",
    "phone": "(531) 230- 8091",
    "website": "https://columbuslearnandplay.org/",
    "admittancePolicy": "Free admission for two adults and up to six children in the family.",
    "proofOfResidenceRequired": true,
    "latitude": 41.4358,
    "longitude": -97.3686,
    "discountType": "free",
    "specialNotes": ""
  },
  {
    "id": "edgerton-explorit-center",
    "name": "Edgerton Explorit Center",
    "address": "208 16th St",
    "city": "Aurora",
    "state": "NE",
    "country": "USA",
    "zip": "68818",
    "phone": "(402) 694- 4032",
    "website": "https://edgerton.org/",
    "admittancePolicy": "Immediate family residing in the same household.",
    "proofOfResidenceRequired": false,
    "latitude": 40.8588605,
    "longitude": -97.9966751,
    "discountType": "free",
    "specialNotes": ""
  },
  {
    "id": "hastings-museum",
    "name": "Hastings Museum",
    "address": "1330 N Burlington Ave",
    "city": "Hastings",
    "state": "NE",
    "country": "USA",
    "zip": "68901",
    "phone": "(402) 461- 2399",
    "website": "https://hastingsmuseum.org/",
    "admittancePolicy": "All member perks listed on website for one or two adults and up to 4 children under 21.",
    "proofOfResidenceRequired": true,
    "latitude": 40.6000607,
    "longitude": -98.3914054,
    "discountType": "free",
    "specialNotes": ""
  },
  {
    "id": "omaha-children-s-museum",
    "name": "Omaha Children's Museum",
    "address": "500 S 20th St",
    "city": "Omaha",
    "state": "NE",
    "country": "USA",
    "zip": "68102",
    "phone": "(402) 342- 6164",
    "website": "https://ocm.org/about/",
    "admittancePolicy": "A family of four.",
    "proofOfResidenceRequired": true,
    "latitude": 41.255388,
    "longitude": -95.942366,
    "discountType": "free",
    "specialNotes": ""
  },
  {
    "id": "history-morrill-hall",
    "name": "History-Morrill Hall",
    "address": "Morrill Hall",
    "city": "645 N 14th St",
    "state": "Lincoln",
    "country": "USA",
    "zip": "",
    "phone": "(402) 472- 2637",
    "website": "https://museum.unl.edu",
    "admittancePolicy": "Admission for two adults and two children. Passport visitors receive a 10% discount on museum store purchases.",
    "proofOfResidenceRequired": false,
    "latitude": 40.8186,
    "longitude": -96.7055,
    "discountType": "free",
    "specialNotes": ""
  },
  {
    "id": "fleischmann-planetarium-and-science-center",
    "name": "Fleischmann Planetarium and Science Center",
    "address": "1664 N Virginia St",
    "city": "Reno",
    "state": "NV",
    "country": "USA",
    "zip": "89557",
    "phone": "(775) 784- 4812",
    "website": "https://www.unr.edu/planetarium",
    "admittancePolicy": "Free Exhibit Hall access. Two adults and up to four children under 18 receive half price on shows and exhibit admission and a 10% discount on museum store purchases.",
    "proofOfResidenceRequired": true,
    "latitude": 39.5376039,
    "longitude": -119.8142728,
    "discountType": "free",
    "specialNotes": ""
  },
  {
    "id": "las-vegas-natural-history-museum",
    "name": "Las Vegas Natural History Museum",
    "address": "900 Las Vegas Blvd N",
    "city": "Las Vegas",
    "state": "NV",
    "country": "USA",
    "zip": "89101",
    "phone": "(702) 384- 3466",
    "website": "https://www.lvnhm.org/",
    "admittancePolicy": "Two adults and two children with proof of a valid membership.",
    "proofOfResidenceRequired": true,
    "latitude": 36.1798986,
    "longitude": -115.1338175,
    "discountType": "free",
    "specialNotes": ""
  },
  {
    "id": "the-discovery",
    "name": "The Discovery",
    "address": "490 S Center St",
    "city": "Reno",
    "state": "NV",
    "country": "USA",
    "zip": "89501",
    "phone": "(775) 786- 1000",
    "website": "https://nvdm.org/",
    "admittancePolicy": "Family of four people.",
    "proofOfResidenceRequired": true,
    "latitude": 39.5201534,
    "longitude": -119.80886,
    "discountType": "free",
    "specialNotes": ""
  },
  {
    "id": "mcauliffe-shepard-discovery-center",
    "name": "McAuliffe-Shepard Discovery Center",
    "address": "2 Institute Dr",
    "city": "Concord",
    "state": "NH",
    "country": "USA",
    "zip": "03301",
    "phone": "(603) 271- 7827",
    "website": "https://www.starhop.com/",
    "admittancePolicy": "Member cardholder must be present, and up to three guests, for exhibit gallery only. No other discounts apply.",
    "proofOfResidenceRequired": true,
    "latitude": 43.2243589,
    "longitude": -71.532775,
    "discountType": "free",
    "specialNotes": ""
  },
  {
    "id": "mount-washington-observatory",
    "name": "Mount Washington Observatory",
    "address": "2779 White Mountain Hwy",
    "city": "North Conway",
    "state": "NH",
    "country": "USA",
    "zip": "03860",
    "phone": "(603) 356- 2137",
    "website": "https://www.mountwashington.org/",
    "admittancePolicy": "Free admission for two adults and up to four children (children under 6 are always free) to the Extreme Mount Washington Museum in the Mt. Washington State Park on the summit of Mount Washington, New Hampshire. Seasonal. Museum is open mid-May to mid-October.",
    "proofOfResidenceRequired": false,
    "latitude": 44.0553637,
    "longitude": -71.1291811,
    "discountType": "free",
    "specialNotes": ""
  },
  {
    "id": "see-science-center",
    "name": "SEE Science Center",
    "address": "200 Bedford St",
    "city": "Manchester",
    "state": "NH",
    "country": "USA",
    "zip": "03101",
    "phone": "(603) 669- 0400",
    "website": "https://see-sciencecenter.org/",
    "admittancePolicy": "Two free admissions; children under 3 are always free.",
    "proofOfResidenceRequired": false,
    "latitude": 42.9897008,
    "longitude": -71.4679602,
    "discountType": "free",
    "specialNotes": ""
  },
  {
    "id": "the-children-s-museum-of-new-hampshire",
    "name": "The Children's Museum of New Hampshire",
    "address": "6 Washington St",
    "city": "Dover",
    "state": "NH",
    "country": "USA",
    "zip": "03820",
    "phone": "(603) 742- 2002",
    "website": "https://www.childrens-museum.org/",
    "admittancePolicy": "Free admission for up to four people, one of whose names is printed on the membership card. No other discounts apply. Excludes: SEE Science Center Members – Free admission for up to 2 people, one of whose names is printed on the membership card.",
    "proofOfResidenceRequired": false,
    "latitude": 43.1948505,
    "longitude": -70.8730038,
    "discountType": "free",
    "specialNotes": ""
  },
  {
    "id": "liberty-science-center",
    "name": "Liberty Science Center",
    "address": "222 Jersey City Blvd",
    "city": "Jersey City",
    "state": "NJ",
    "country": "USA",
    "zip": "07305",
    "phone": "(201) 200- 1000",
    "website": "https://lsc.org/",
    "admittancePolicy": "Two adults and four children.",
    "proofOfResidenceRequired": true,
    "latitude": 40.7081774,
    "longitude": -74.054691,
    "discountType": "free",
    "specialNotes": ""
  },
  {
    "id": "new-jersey-state-museum",
    "name": "New Jersey State Museum",
    "address": "205 West State Street",
    "city": "Trenton",
    "state": "NJ",
    "country": "USA",
    "zip": "08608",
    "phone": "(609) 292- 6464",
    "website": "https://www.nj.gov/state/museum/",
    "admittancePolicy": "Admission to the NJ State Museum is free. ASTC Passport visitors receive a 10% discount in the Museum Shop. Planetarium tickets are $10/adult and $5/child,12yo and under. Planetarium discounts are available for NJSM members and groups of 15 or more.",
    "proofOfResidenceRequired": false,
    "latitude": 40.2210696,
    "longitude": -74.7733052,
    "discountType": "free",
    "specialNotes": ""
  },
  {
    "id": "laboratory",
    "name": "Laboratory",
    "address": "1350 Central Ave",
    "city": "Los Alamos",
    "state": "NM",
    "country": "USA",
    "zip": "87544",
    "phone": "(505) 667- 4444",
    "website": "https://www.lanl.gov/museum",
    "admittancePolicy": "Two adults and children under 18 residing in the same household. Museum is free; Passport visitors receive a souvenir/gift (one per family).",
    "proofOfResidenceRequired": false,
    "latitude": 35.8816651,
    "longitude": -106.2986491,
    "discountType": "free",
    "specialNotes": ""
  },
  {
    "id": "explora",
    "name": "Explora",
    "address": "1701 Mountain Rd NW",
    "city": "Albuquerque",
    "state": "NM",
    "country": "USA",
    "zip": "87104",
    "phone": "(505) 600- 6072",
    "website": "https://www.explora.us/",
    "admittancePolicy": "Two adults and four children under 18. Passport visitors receive a 10% discount on museum store purchases.",
    "proofOfResidenceRequired": false,
    "latitude": 35.097197,
    "longitude": -106.665171,
    "discountType": "free",
    "specialNotes": ""
  },
  {
    "id": "farmington-museum",
    "name": "Farmington Museum",
    "address": "3041 E Main St",
    "city": "Farmington",
    "state": "NM",
    "country": "USA",
    "zip": "87402",
    "phone": "(505) 599- 1174",
    "website": "https://www.farmingtonnm.gov/248/Farmington-",
    "admittancePolicy": "Museum is free; Passport visitors receive a 10% discount on museum store purchases. Fees are assessed for select traveling exhibits.",
    "proofOfResidenceRequired": true,
    "latitude": 36.744467,
    "longitude": -108.1643481,
    "discountType": "free",
    "specialNotes": ""
  },
  {
    "id": "las-cruces-museum-of-nature-and-science",
    "name": "Las Cruces Museum of Nature and Science",
    "address": "411 North Main Street",
    "city": "Las Cruces",
    "state": "NM",
    "country": "USA",
    "zip": "88001",
    "phone": "(575) 522- 3120",
    "website": "https://www.lascruces.gov/museums",
    "admittancePolicy": "Free to all ages.",
    "proofOfResidenceRequired": false,
    "latitude": 32.3124653,
    "longitude": -106.7797227,
    "discountType": "free",
    "specialNotes": ""
  },
  {
    "id": "national-museum-of-nuclear-science-history",
    "name": "National Museum of Nuclear Science & History",
    "address": "601 Eubank Boulevard SE",
    "city": "Albuquerque",
    "state": "NM",
    "country": "USA",
    "zip": "87123",
    "phone": "(505) 245- 2137",
    "website": "https://www.nuclearmuseum.org/",
    "admittancePolicy": "Two adults and two children.",
    "proofOfResidenceRequired": false,
    "latitude": 35.0659425,
    "longitude": -106.5338771,
    "discountType": "free",
    "specialNotes": ""
  },
  {
    "id": "science-albuquerque-nm",
    "name": "Science",
    "address": "1801 Mountain Rd NW",
    "city": "Albuquerque",
    "state": "NM",
    "country": "USA",
    "zip": "87104",
    "phone": "(505) 841- 2800",
    "website": "https://www.nmnaturalhistory.org/",
    "admittancePolicy": "Two adults and up to four children under 18.",
    "proofOfResidenceRequired": true,
    "latitude": 35.0978963,
    "longitude": -106.6656466,
    "discountType": "free",
    "specialNotes": ""
  },
  {
    "id": "brooklyn-children-s-museum",
    "name": "Brooklyn Children's Museum",
    "address": "145 Brooklyn Avenue",
    "city": "Brooklyn",
    "state": "NY",
    "country": "USA",
    "zip": "11213",
    "phone": "(718) 735- 4400",
    "website": "https://www.brooklynkids.org/",
    "admittancePolicy": "Two adults and up to two children under 16.",
    "proofOfResidenceRequired": true,
    "latitude": 40.6743966,
    "longitude": -73.9440461,
    "discountType": "free",
    "specialNotes": ""
  },
  {
    "id": "buffalo-museum-of-science",
    "name": "Buffalo Museum of Science",
    "address": "1020 Humboldt Pkwy",
    "city": "Buffalo",
    "state": "NY",
    "country": "USA",
    "zip": "14211",
    "phone": "(716) 896- 5200",
    "website": "https://www.sciencebuff.org/",
    "admittancePolicy": "Parents or grandparents with their children or grandchildren under 18. Includes Tifft Nature Preserve, 1200 Fuhrmann Boulevard, Buffalo, NY 14203; (716) 825-6397.",
    "proofOfResidenceRequired": false,
    "latitude": 42.9079817,
    "longitude": -78.8430212,
    "discountType": "free",
    "specialNotes": ""
  },
  {
    "id": "corning-museum-of-glass",
    "name": "Corning Museum of Glass",
    "address": "1 Museum Way",
    "city": "Corning",
    "state": "NY",
    "country": "USA",
    "zip": "14830",
    "phone": "(800) 732- 6845",
    "website": "https://www.cmog.org/",
    "admittancePolicy": "Two adults and all children 17 and under. Passport visitors receive 15% off regularly priced items in museum shops; discount excludes online purchases, Make Your Own Glass, and café purchases.",
    "proofOfResidenceRequired": false,
    "latitude": 42.1497504,
    "longitude": -77.0541655,
    "discountType": "free",
    "specialNotes": ""
  },
  {
    "id": "cradle-of-aviation-museum",
    "name": "Cradle of Aviation Museum",
    "address": "Charles Lindbergh Boulevard",
    "city": "Garden City",
    "state": "NY",
    "country": "USA",
    "zip": "11530",
    "phone": "(516) 572- 4111",
    "website": "https://www.cradleofaviation.org/",
    "admittancePolicy": "Up to six people in the household. The program does not include large- screen theater presentations, planetarium shows, or admission to special events.",
    "proofOfResidenceRequired": true,
    "latitude": 40.7272803,
    "longitude": -73.5967586,
    "discountType": "free",
    "specialNotes": ""
  },
  {
    "id": "intrepid-museum",
    "name": "Intrepid Museum",
    "address": "1 Intrepid Sq",
    "city": "12th Avenue & West 46th Street",
    "state": "New",
    "country": "USA",
    "zip": "",
    "phone": "(646) 381- 5030",
    "website": "https://intrepidmuseum.org/",
    "admittancePolicy": "Two adults and four children under 18.",
    "proofOfResidenceRequired": true,
    "latitude": 40.7645974,
    "longitude": -73.9995974,
    "discountType": "free",
    "specialNotes": ""
  },
  {
    "id": "kopernik-observatory-science-center",
    "name": "Kopernik Observatory & Science Center",
    "address": "698 Underwood Rd",
    "city": "Vestal",
    "state": "NY",
    "country": "USA",
    "zip": "13850",
    "phone": "(607) 748- 3685",
    "website": "https://www.kopernik.org/",
    "admittancePolicy": "Two adults and their children living in the same household.",
    "proofOfResidenceRequired": false,
    "latitude": 42.0021034,
    "longitude": -76.033339,
    "discountType": "free",
    "specialNotes": ""
  },
  {
    "id": "long-island-children-s-museum",
    "name": "Long Island Children's Museum",
    "address": "11 Davis Ave",
    "city": "Garden City",
    "state": "NY",
    "country": "USA",
    "zip": "11530",
    "phone": "(516) 224- 5800",
    "website": "https://www.licm.org/",
    "admittancePolicy": "Up to four family members named on the membership card (unescorted adults or children not permitted).",
    "proofOfResidenceRequired": true,
    "latitude": 40.7281459,
    "longitude": -73.6005299,
    "discountType": "free",
    "specialNotes": ""
  },
  {
    "id": "long-island-explorium",
    "name": "Long Island Explorium",
    "address": "101 E Broadway",
    "city": "Port Jefferson",
    "state": "NY",
    "country": "USA",
    "zip": "11777",
    "phone": "(631) 331- 3277",
    "website": "https://longislandexplorium.org/",
    "admittancePolicy": "Two adults and two children (2 years and up).",
    "proofOfResidenceRequired": false,
    "latitude": 40.9485602,
    "longitude": -73.0671316,
    "discountType": "free",
    "specialNotes": ""
  },
  {
    "id": "mid-hudson-discovery-museum",
    "name": "Mid-Hudson Discovery Museum",
    "address": "75 N Water St",
    "city": "Poughkeepsie",
    "state": "NY",
    "country": "USA",
    "zip": "12601- 1720",
    "phone": "(845) 471- 0589",
    "website": "https://mhdm.org/",
    "admittancePolicy": "Adult cardholder and individuals covered by the membership, up to a maximum of eight people.",
    "proofOfResidenceRequired": true,
    "latitude": 41.708808,
    "longitude": -73.9391975,
    "discountType": "free",
    "specialNotes": ""
  },
  {
    "id": "misci-museum-of-innovation-and-science",
    "name": "miSci (Museum of Innovation and Science)",
    "address": "15 Museum Dr.",
    "city": "Schenectady",
    "state": "NY",
    "country": "USA",
    "zip": "12308",
    "phone": "(518) 382- 7890",
    "website": "https://www.misci.org/",
    "admittancePolicy": "Two adults and four children. One adult must be named on membership card. Does not include special events and the planetarium.",
    "proofOfResidenceRequired": true,
    "latitude": 42.8142,
    "longitude": -73.9396,
    "discountType": "free",
    "specialNotes": ""
  },
  {
    "id": "museum-of-science-technology-most",
    "name": "Museum of Science & Technology (MOST)",
    "address": "500 S Franklin St",
    "city": "Syracuse",
    "state": "NY",
    "country": "USA",
    "zip": "13202",
    "phone": "(315) 425- 9068",
    "website": "https://www.most.org",
    "admittancePolicy": "Two adults and all youth under 18 in the same household. Proof of active membership and photo ID required. Discounts not available for online ticket sales.",
    "proofOfResidenceRequired": true,
    "latitude": 43.0470782,
    "longitude": -76.1553621,
    "discountType": "free",
    "specialNotes": ""
  },
  {
    "id": "research-institution",
    "name": "Research Institution",
    "address": "1259 Trumansburg Rd",
    "city": "Ithaca",
    "state": "NY",
    "country": "USA",
    "zip": "14850",
    "phone": "(607) 273- 6623",
    "website": "https://www.museumoftheearth.org/",
    "admittancePolicy": "Two adults and any number of children up to age 17 living in the immediate household.",
    "proofOfResidenceRequired": false,
    "latitude": 42.4667064,
    "longitude": -76.5362979,
    "discountType": "free",
    "specialNotes": ""
  },
  {
    "id": "national-museum-of-mathematics-momath",
    "name": "National Museum of Mathematics (MoMath)",
    "address": "225 5th Ave",
    "city": "New York",
    "state": "NY",
    "country": "USA",
    "zip": "10010",
    "phone": "(212) 542- 0566",
    "website": "https://momath.org/",
    "admittancePolicy": "Two adults and up to four children under 18 residing in the same household; must be part of the same family.",
    "proofOfResidenceRequired": true,
    "latitude": 40.7435852,
    "longitude": -73.9877866,
    "discountType": "free",
    "specialNotes": ""
  },
  {
    "id": "new-york-hall-of-science",
    "name": "New York Hall of Science",
    "address": "4701 111th St",
    "city": "Corona",
    "state": "NY",
    "country": "USA",
    "zip": "11368",
    "phone": "(718) 699- 0005",
    "website": "https://nysci.org/",
    "admittancePolicy": "Two adults and up to four children in household.",
    "proofOfResidenceRequired": true,
    "latitude": 40.747377,
    "longitude": -73.8516136,
    "discountType": "free",
    "specialNotes": ""
  },
  {
    "id": "new-york-transit-museum",
    "name": "New York Transit Museum",
    "address": "99 Schermerhorn St",
    "city": "Brooklyn",
    "state": "NY",
    "country": "USA",
    "zip": "11201",
    "phone": "(718) 694- 1600",
    "website": "https://www.nytransitmuseum.org/",
    "admittancePolicy": "Two adults and two children ages 2-17. Children under 2 are free. Museum Gallery & Store at Grand Central Terminal (Shuttle Passage, next to the Station Master’s Office) is free.",
    "proofOfResidenceRequired": true,
    "latitude": 40.6905176,
    "longitude": -73.9899802,
    "discountType": "free",
    "specialNotes": ""
  },
  {
    "id": "roberson-museum",
    "name": "Roberson Museum",
    "address": "30 Front St",
    "city": "Binghamton",
    "state": "NY",
    "country": "USA",
    "zip": "13905",
    "phone": "(607) 772- 0660",
    "website": "https://www.roberson.org/",
    "admittancePolicy": "Two named adults and up to two accompanied guests.",
    "proofOfResidenceRequired": false,
    "latitude": 42.0939591,
    "longitude": -75.918584,
    "discountType": "free",
    "specialNotes": ""
  },
  {
    "id": "rochester-museum-science-center",
    "name": "Rochester Museum & Science Center",
    "address": "657 East Ave",
    "city": "Rochester",
    "state": "NY",
    "country": "USA",
    "zip": "14607",
    "phone": "(585) 271- 4320",
    "website": "https://rmsc.org/",
    "admittancePolicy": "Up to two adults and their immediate financial dependents, e.g., children and adult parents, living in the same household. Regular admission fees apply to planetarium and nature center.",
    "proofOfResidenceRequired": false,
    "latitude": 43.1523864,
    "longitude": -77.5876579,
    "discountType": "free",
    "specialNotes": ""
  },
  {
    "id": "sciencenter",
    "name": "Sciencenter",
    "address": "601 1st St",
    "city": "Ithaca",
    "state": "NY",
    "country": "USA",
    "zip": "14850",
    "phone": "(607) 272- 0600",
    "website": "https://sciencenter.org/",
    "admittancePolicy": "Two adults and their children living in the same household. Valid photo ID required for adults.",
    "proofOfResidenceRequired": true,
    "latitude": 42.4497207,
    "longitude": -76.5040491,
    "discountType": "free",
    "specialNotes": ""
  },
  {
    "id": "sci-tech-museum",
    "name": "Sci-Tech Museum",
    "address": "154 Stone St",
    "city": "Watertown",
    "state": "NY",
    "country": "USA",
    "zip": "13601",
    "phone": "(315) 788- 1340",
    "website": "https://www.scitechcenter.org/",
    "admittancePolicy": "Two adults and their minor children, all living together.",
    "proofOfResidenceRequired": false,
    "latitude": 43.974371,
    "longitude": -75.9131857,
    "discountType": "free",
    "specialNotes": ""
  },
  {
    "id": "staten-island-children-s-museum",
    "name": "Staten Island Children's Museum",
    "address": "1000 Richmond Ter",
    "city": "Staten Island",
    "state": "NY",
    "country": "USA",
    "zip": "10301",
    "phone": "(718) 273- 2060",
    "website": "https://sichildrensmuseum.org/",
    "admittancePolicy": "Two adults and up to three children under 17",
    "proofOfResidenceRequired": true,
    "latitude": 40.6418756,
    "longitude": -74.1019417,
    "discountType": "free",
    "specialNotes": ""
  },
  {
    "id": "wings-of-eagles-discovery-center",
    "name": "Wings of Eagles Discovery Center",
    "address": "339 Daniel Zenker Dr",
    "city": "Horseheads",
    "state": "NY",
    "country": "USA",
    "zip": "14845",
    "phone": "(607) 358- 4247",
    "website": "https://www.wingsofeagles.com/",
    "admittancePolicy": "Two adults and three children. Includes 10% museum store discount.",
    "proofOfResidenceRequired": false,
    "latitude": 42.1538379,
    "longitude": -76.9134709,
    "discountType": "free",
    "specialNotes": ""
  },
  {
    "id": "airlie-gardens",
    "name": "Airlie Gardens",
    "address": "300 Airlie Road",
    "city": "Wilmington",
    "state": "NC",
    "country": "USA",
    "zip": "28403",
    "phone": "(910) 798- 7700",
    "website": "https://airliegardens.org/",
    "admittancePolicy": "Free admission for two adults and accompanying children under 18.",
    "proofOfResidenceRequired": true,
    "latitude": 34.217747,
    "longitude": -77.828957,
    "discountType": "free",
    "specialNotes": ""
  },
  {
    "id": "asheville-museum-of-science",
    "name": "Asheville Museum of Science",
    "address": "43 Patton Ave",
    "city": "Asheville",
    "state": "NC",
    "country": "USA",
    "zip": "28801",
    "phone": "(828) 254- 7162",
    "website": "https://ashevillescience.org/",
    "admittancePolicy": "Admission for up to two adults and two children (3-17 years); children 2 and under are always free. Closed Tuesdays. Proof of active Membership & photo ID required. Discount not available for online ticket sales, walk-in Admissions only.",
    "proofOfResidenceRequired": true,
    "latitude": 35.5949573,
    "longitude": -82.5535139,
    "discountType": "free",
    "specialNotes": ""
  },
  {
    "id": "hands-on-children-s-museum",
    "name": "Hands On! Children's Museum",
    "address": "318 N Main St",
    "city": "Hendersonville",
    "state": "NC",
    "country": "USA",
    "zip": "28792- 0407",
    "phone": "(828) 697- 8333",
    "website": "https://handsonwnc.org/",
    "admittancePolicy": "",
    "proofOfResidenceRequired": false,
    "latitude": 35.3163004,
    "longitude": -82.4596033,
    "discountType": "free",
    "specialNotes": ""
  },
  {
    "id": "imagination-station-science-and-history-museum",
    "name": "Imagination Station Science and History Museum",
    "address": "224 Nash St SE",
    "city": "Wilson",
    "state": "NC",
    "country": "USA",
    "zip": "27893",
    "phone": "(252) 291- 5113",
    "website": "https://scienceandhistory.org/",
    "admittancePolicy": "Two adults and four children under 18.",
    "proofOfResidenceRequired": false,
    "latitude": 35.7232,
    "longitude": -77.9155,
    "discountType": "free",
    "specialNotes": ""
  },
  {
    "id": "kaleideum",
    "name": "Kaleideum",
    "address": "120 W Third Street",
    "city": "Winston-Salem",
    "state": "NC",
    "country": "USA",
    "zip": "27101",
    "phone": "(336) 767- 6730",
    "website": "https://www.kaleideum.org/",
    "admittancePolicy": "Two adults and children under 19 residing in the same household.",
    "proofOfResidenceRequired": true,
    "latitude": 36.0965,
    "longitude": -80.2441,
    "discountType": "free",
    "specialNotes": ""
  },
  {
    "id": "marbles-kids-museum",
    "name": "Marbles Kids Museum",
    "address": "201 East Hargett Street",
    "city": "Raleigh",
    "state": "NC",
    "country": "USA",
    "zip": "27601",
    "phone": "(919) 834- 4040",
    "website": "https://www.marbleskidsmuseum.org/",
    "admittancePolicy": "Up to four people (children and adults). One adult listed on the membership card must be present with photo ID.",
    "proofOfResidenceRequired": true,
    "latitude": 35.7788262,
    "longitude": -78.6361726,
    "discountType": "free",
    "specialNotes": ""
  },
  {
    "id": "morehead-planetarium-and-science-center",
    "name": "Morehead Planetarium and Science Center",
    "address": "250 E Franklin St",
    "city": "Chapel Hill",
    "state": "NC",
    "country": "USA",
    "zip": "27514",
    "phone": "(919) 962- 1236",
    "website": "https://moreheadplanetarium.org/",
    "admittancePolicy": "Passport visitors receive buy- one, get-one pricing for museum or museum + planetarium show tickets for regularly scheduled shows. Max of 8 total tickets (4 free).",
    "proofOfResidenceRequired": true,
    "latitude": 35.9139158,
    "longitude": -79.050422,
    "discountType": "free",
    "specialNotes": ""
  },
  {
    "id": "planetarium-ocean-isle-beach-nc",
    "name": "Planetarium",
    "address": "21 E 2nd St",
    "city": "Ocean Isle Beach",
    "state": "NC",
    "country": "USA",
    "zip": "28469",
    "phone": "(910) 579- 1016",
    "website": "https://www.museumplanetarium.org",
    "admittancePolicy": "Museum of Coastal Carolina general admission for up to two adults and four children; planetarium shows are excluded. At least one adult must be named on membership card. Photo ID required.",
    "proofOfResidenceRequired": true,
    "latitude": 33.8891207,
    "longitude": -78.4347802,
    "discountType": "free",
    "specialNotes": ""
  },
  {
    "id": "museum-of-life-and-science",
    "name": "Museum of Life and Science",
    "address": "433 W Murray Ave",
    "city": "Durham",
    "state": "NC",
    "country": "USA",
    "zip": "27704",
    "phone": "(919) 220- 5429",
    "website": "https://www.lifeandscience.org/",
    "admittancePolicy": "Up to four people (children or adult). One adult listed on the membership card must be present with photo ID.",
    "proofOfResidenceRequired": true,
    "latitude": 36.0294219,
    "longitude": -78.8993435,
    "discountType": "free",
    "specialNotes": ""
  },
  {
    "id": "north-carolina-museum-of-natural-sciences",
    "name": "North Carolina Museum of Natural Sciences",
    "address": "11 W Jones St",
    "city": "Raleigh",
    "state": "NC",
    "country": "USA",
    "zip": "27601",
    "phone": "(919) 707- 9800",
    "website": "https://naturalsciences.org/",
    "admittancePolicy": "Two adults in the household and their minor children or grandchildren. Museum is free; Passport visitors receive a 50% discount on admission to the special exhibition gallery and 10% discount in Museum Stores.",
    "proofOfResidenceRequired": false,
    "latitude": 35.7821583,
    "longitude": -78.6395026,
    "discountType": "free",
    "specialNotes": ""
  },
  {
    "id": "north-carolina-transportation-museum",
    "name": "North Carolina Transportation Museum",
    "address": "1 Samuel Spencer Dr.",
    "city": "Spencer",
    "state": "NC",
    "country": "USA",
    "zip": "28159",
    "phone": "(704) 636- 2889",
    "website": "https://www.nctransportationmuseum.org/",
    "admittancePolicy": "Admission and train ride for immediate family members residing in same household; limit four. Excludes premium and special events. Train rides are available on select days.",
    "proofOfResidenceRequired": false,
    "latitude": 35.6872596,
    "longitude": -80.434002,
    "discountType": "free",
    "specialNotes": ""
  },
  {
    "id": "port-discover",
    "name": "Port Discover",
    "address": "611 E Main St",
    "city": "Elizabeth City",
    "state": "NC",
    "country": "USA",
    "zip": "27909",
    "phone": "(252) 338- 6117",
    "website": "https://www.portdiscover.org/",
    "admittancePolicy": "Up to four children and unlimited adults.",
    "proofOfResidenceRequired": true,
    "latitude": 36.2995163,
    "longitude": -76.2192372,
    "discountType": "free",
    "specialNotes": ""
  },
  {
    "id": "planetarium-gastonia-nc",
    "name": "Planetarium",
    "address": "1500 E Garrison Blvd",
    "city": "Gastonia",
    "state": "NC",
    "country": "USA",
    "zip": "28054",
    "phone": "(704) 866- 6900",
    "website": "https://www.schielemuseum.org/",
    "admittancePolicy": "Two adults and up to four children under 18 to receive complimentary museum admission. One adult listed on valid membership card must be present with photo ID. Planetarium, farm, and special events are excluded.",
    "proofOfResidenceRequired": true,
    "latitude": 35.2532665,
    "longitude": -81.1583309,
    "discountType": "free",
    "specialNotes": ""
  },
  {
    "id": "western-north-carolina-nature-center",
    "name": "Western North Carolina Nature Center",
    "address": "75 Gashes Creek Rd",
    "city": "Asheville",
    "state": "NC",
    "country": "USA",
    "zip": "28805",
    "phone": "(828) 259- 8080",
    "website": "https://wildwnc.org/",
    "admittancePolicy": "Two adults (named on card; must present a valid photo ID) and up to six children or grandchildren (17 or younger, in same household).",
    "proofOfResidenceRequired": false,
    "latitude": 35.579774,
    "longitude": -82.4945397,
    "discountType": "free",
    "specialNotes": ""
  },
  {
    "id": "north-dakota-s-gateway-to-science",
    "name": "North Dakota's Gateway to Science",
    "address": "1600 Canary Avenue",
    "city": "Bismarck",
    "state": "ND",
    "country": "USA",
    "zip": "58501",
    "phone": "(701) 258- 1975",
    "website": "https://gatewaytoscience.org/",
    "admittancePolicy": "Two adults and children under 18 residing in the same household. We are closed on Tuesdays.",
    "proofOfResidenceRequired": true,
    "latitude": 46.8240207,
    "longitude": -100.8206407,
    "discountType": "free",
    "specialNotes": ""
  },
  {
    "id": "boonshoft-museum-of-discovery",
    "name": "Boonshoft Museum of Discovery",
    "address": "2600 Deweese Pkwy",
    "city": "Dayton",
    "state": "OH",
    "country": "USA",
    "zip": "45414",
    "phone": "(937) 275- 7431",
    "website": "https://boonshoft.org/",
    "admittancePolicy": "All adults and children listed on the membership card of the reciprocal institution will receive a discount. Reciprocal institutions with ASTC accreditation within 90 miles of Boonshoft will be offered 50% off admission, and those outside 90 miles will be",
    "proofOfResidenceRequired": true,
    "latitude": 39.7884016,
    "longitude": -84.2017509,
    "discountType": "free",
    "specialNotes": ""
  },
  {
    "id": "cincinnati-museum-center",
    "name": "Cincinnati Museum Center",
    "address": "1301 Western Ave",
    "city": "Cincinnati",
    "state": "OH",
    "country": "USA",
    "zip": "45203",
    "phone": "(513) 287- 7000",
    "website": "https://www.cincymuseum.org/",
    "admittancePolicy": "Two adults and up to four children 17 and under listed on the membership. Fees associated with The Robert D. Lindner Family OMNIMAX® Theater and Featured Exhibits. Photo ID is required for adults.",
    "proofOfResidenceRequired": true,
    "latitude": 39.1100035,
    "longitude": -84.5378025,
    "discountType": "free",
    "specialNotes": ""
  },
  {
    "id": "cleveland-museum-of-natural-history",
    "name": "Cleveland Museum of Natural History",
    "address": "1 Wade Oval Dr",
    "city": "Cleveland",
    "state": "OH",
    "country": "USA",
    "zip": "44106",
    "phone": "(216) 231- 4600",
    "website": "https://www.cmnh.org/",
    "admittancePolicy": "Two adults and all children 18 and under living in the same household, or two grandparents and all grandchildren 18 and under.",
    "proofOfResidenceRequired": true,
    "latitude": 41.5116753,
    "longitude": -81.6129728,
    "discountType": "free",
    "specialNotes": ""
  },
  {
    "id": "cosi",
    "name": "COSI",
    "address": "333 W Broad St",
    "city": "Columbus",
    "state": "OH",
    "country": "USA",
    "zip": "43215",
    "phone": "(614) 228- 2674",
    "website": "https://www.cosi.org/",
    "admittancePolicy": ": Two named adults and up to four children 18 and under listed on the membership. Additional admission required for select traveling exhibitions, motion simulator rides, and/or other experiences. Advance reservations required.",
    "proofOfResidenceRequired": true,
    "latitude": 39.9596528,
    "longitude": -83.0066678,
    "discountType": "free",
    "specialNotes": ""
  },
  {
    "id": "great-lakes-science-center",
    "name": "Great Lakes Science Center",
    "address": "601 Erieside Ave",
    "city": "Cleveland",
    "state": "OH",
    "country": "USA",
    "zip": "44114",
    "phone": "(216) 694- 2000",
    "website": "https://greatscience.com/",
    "admittancePolicy": "Two adults named on membership card and up to four children or grandchildren under 18.",
    "proofOfResidenceRequired": true,
    "latitude": 41.5075229,
    "longitude": -81.6969935,
    "discountType": "free",
    "specialNotes": ""
  },
  {
    "id": "imagination-station-toledo",
    "name": "Imagination Station, Toledo",
    "address": "1 Discovery Way",
    "city": "Toledo",
    "state": "OH",
    "country": "USA",
    "zip": "43604",
    "phone": "(419) 244- 2674",
    "website": "https://www.imaginationstationtoledo.org/",
    "admittancePolicy": "Two adults and all children under 18 living in the same household.",
    "proofOfResidenceRequired": true,
    "latitude": 41.6519471,
    "longitude": -83.531463,
    "discountType": "free",
    "specialNotes": ""
  },
  {
    "id": "mckinley-presidential-library-museum",
    "name": "McKinley Presidential Library & Museum",
    "address": "800 McKinley Monument Dr NW",
    "city": "Canton",
    "state": "OH",
    "country": "USA",
    "zip": "44708",
    "phone": "(330) 455- 7043",
    "website": "https://mckinleymuseum.org/",
    "admittancePolicy": "Mother, father, and unmarried children under 18, or grandparents and unmarried grandchildren under 18 (two-generation limit).",
    "proofOfResidenceRequired": false,
    "latitude": 40.8058383,
    "longitude": -81.3920257,
    "discountType": "free",
    "specialNotes": ""
  },
  {
    "id": "center-for-science-technology",
    "name": "Center for Science & Technology",
    "address": "15 Central Square",
    "city": "Youngstown",
    "state": "OH",
    "country": "USA",
    "zip": "44503",
    "phone": "(330) 744- 5914",
    "website": "https://ohwowkids.org/",
    "admittancePolicy": "Four free admission, $12 admissions per person after that.",
    "proofOfResidenceRequired": false,
    "latitude": 41.0997427,
    "longitude": -80.6497908,
    "discountType": "free",
    "specialNotes": ""
  },
  {
    "id": "spi-where-science-and-play-intersect",
    "name": "SPI: Where Science and Play Intersect",
    "address": "400 South Main Street",
    "city": "Mount Vernon",
    "state": "OH",
    "country": "USA",
    "zip": "43050",
    "phone": "(740) 501- 7616",
    "website": "https://www.spi-mountvernon.org/",
    "admittancePolicy": "Up to two adults named on a current membership card and three children living within the same household. Passport visitors whose residence or home institution is within 90 miles will not qualify for free admission but may qualify for discounted admission as arranged with regional partners.",
    "proofOfResidenceRequired": true,
    "latitude": 40.3897562,
    "longitude": -82.4856733,
    "discountType": "free",
    "specialNotes": ""
  },
  {
    "id": "technology-newark-oh",
    "name": "Technology",
    "address": "55 S 1st St",
    "city": "Newark",
    "state": "OH",
    "country": "USA",
    "zip": "43055",
    "phone": "(740) 349- 9277",
    "website": "https://attheworks.org/",
    "admittancePolicy": "Two adults and up to four children/grandchildren under 18.",
    "proofOfResidenceRequired": false,
    "latitude": 40.0569185,
    "longitude": -82.3983267,
    "discountType": "free",
    "specialNotes": ""
  },
  {
    "id": "discovery-lab",
    "name": "Discovery Lab",
    "address": "3123 Riverside Drive",
    "city": "Tulsa",
    "state": "OK",
    "country": "USA",
    "zip": "",
    "phone": "(918) 295- 8144",
    "website": "https://discoverylab.org/",
    "admittancePolicy": "Up to two adults named on the membership card and up to two children in the same household.",
    "proofOfResidenceRequired": true,
    "latitude": 36.1176257,
    "longitude": -95.9842033,
    "discountType": "free",
    "specialNotes": ""
  },
  {
    "id": "science-museum-oklahoma",
    "name": "Science Museum Oklahoma",
    "address": "2020 Remington Pl",
    "city": "Oklahoma City",
    "state": "OK",
    "country": "USA",
    "zip": "73111",
    "phone": "(405) 602- 6664",
    "website": "https://www.sciencemuseumok.org",
    "admittancePolicy": "Two adults and two children (ages 3–12).",
    "proofOfResidenceRequired": true,
    "latitude": 35.523225,
    "longitude": -97.4758318,
    "discountType": "free",
    "specialNotes": ""
  },
  {
    "id": "eugene-science-center",
    "name": "Eugene Science Center",
    "address": "2300 Leo Harris Parkway",
    "city": "Eugene",
    "state": "OR",
    "country": "USA",
    "zip": "97401",
    "phone": "(541) 682- 7888",
    "website": "https://eugenesciencecenter.org/",
    "admittancePolicy": "Two adults and four children living in the same household.",
    "proofOfResidenceRequired": true,
    "latitude": 44.0564329,
    "longitude": -123.072771,
    "discountType": "free",
    "specialNotes": ""
  },
  {
    "id": "evergreen-aviation-space-museum",
    "name": "Evergreen Aviation & Space Museum",
    "address": "500 NE Captain Michael King Smith Way",
    "city": "",
    "state": "OREGON",
    "country": "USA",
    "zip": "",
    "phone": "(503) 434- 4180",
    "website": "https://www.evergreenmuseum.org/",
    "admittancePolicy": "Two adults and up to four children from the same household ages 5–16 (under 5 is always free).",
    "proofOfResidenceRequired": true,
    "latitude": 45.2037926,
    "longitude": -123.1429169,
    "discountType": "free",
    "specialNotes": ""
  },
  {
    "id": "gilbert-house-children-s-museum",
    "name": "Gilbert House Children's Museum",
    "address": "116 Marion Street NE",
    "city": "Salem",
    "state": "OR",
    "country": "USA",
    "zip": "97301",
    "phone": "(503) 371- 3631",
    "website": "https://acgilbert.org/",
    "admittancePolicy": "Two named adult cardholders and up to four named children. Additional guests must pay regular admission. Does not include special events, classes, or camps. No longer reciprocal with University of Oregon Museum of Natural and Cultural History.",
    "proofOfResidenceRequired": true,
    "latitude": 44.9449922,
    "longitude": -123.0410532,
    "discountType": "free",
    "specialNotes": ""
  },
  {
    "id": "oregon-museum-of-science-and-industry",
    "name": "Oregon Museum of Science and Industry",
    "address": "1945 SE Water Ave",
    "city": "Portland",
    "state": "OR",
    "country": "USA",
    "zip": "97214",
    "phone": "(503) 797- 4000",
    "website": "https://omsi.edu/",
    "admittancePolicy": "General admission for two adults and up to four children (Ages 3-17). Additional fees apply for events, theater and planetarium shows, submarine tours, and special traveling exhibits. No longer reciprocal with A.C. Gilbert House as of September 1, 2025.",
    "proofOfResidenceRequired": true,
    "latitude": 45.5079739,
    "longitude": -122.6637381,
    "discountType": "free",
    "specialNotes": ""
  },
  {
    "id": "scienceworks-hands-on-museum",
    "name": "ScienceWorks Hands-On Museum",
    "address": "1500 E Main St",
    "city": "Ashland",
    "state": "OR",
    "country": "USA",
    "zip": "97520",
    "phone": "(541) 482- 6767",
    "website": "https://scienceworksmuseum.org/",
    "admittancePolicy": "Parents/guardians and all dependents in their household under 18.",
    "proofOfResidenceRequired": false,
    "latitude": 42.1935473,
    "longitude": -122.6886234,
    "discountType": "free",
    "specialNotes": ""
  },
  {
    "id": "sunriver-nature-center-observatory",
    "name": "Sunriver Nature Center & Observatory",
    "address": "57245 River Rd",
    "city": "Sunriver",
    "state": "OR",
    "country": "USA",
    "zip": "97707",
    "phone": "(541) 593- 4394",
    "website": "https://snco.org/",
    "admittancePolicy": "Two adults and children (18 and younger) residing in the same household. Free daytime admission includes the Nature Center and daytime Observatory. Call for reservation for 50% off Public Night Observatory Programming.",
    "proofOfResidenceRequired": false,
    "latitude": 43.8825745,
    "longitude": -121.4546217,
    "discountType": "free",
    "specialNotes": ""
  },
  {
    "id": "cultural-history",
    "name": "Cultural History",
    "address": "1680 East 15th Ave",
    "city": "Eugene",
    "state": "OR",
    "country": "USA",
    "zip": "97403",
    "phone": "(541) 346- 3024",
    "website": "https://mnch.uoregon.edu/",
    "admittancePolicy": "Two adults and up to four youth (ages 3–18).",
    "proofOfResidenceRequired": true,
    "latitude": 44.0429748,
    "longitude": -123.0680625,
    "discountType": "free",
    "specialNotes": ""
  },
  {
    "id": "carnegie-science-center",
    "name": "Carnegie Science Center",
    "address": "1 Allegheny Ave",
    "city": "Pittsburgh",
    "state": "PA",
    "country": "USA",
    "zip": "15212",
    "phone": "(412) 237- 3400",
    "website": "https://carnegiesciencecenter.org/",
    "admittancePolicy": "Two adults and four children 3 to",
    "proofOfResidenceRequired": true,
    "latitude": 40.4456299,
    "longitude": -80.017931,
    "discountType": "free",
    "specialNotes": ""
  },
  {
    "id": "children-s-museum-of-pittsburgh",
    "name": "Children's Museum of Pittsburgh",
    "address": "10 Childrens Way",
    "city": "Pittsburgh",
    "state": "PA",
    "country": "USA",
    "zip": "15212",
    "phone": "(412) 322- 5058",
    "website": "https://pittsburghkids.org/",
    "admittancePolicy": "Up to two adults and up to three children in one immediate family that are listed on the reciprocal institution's membership. Not reciprocal with Carnegie Science Center or McKinley Presidential Library & Museum memberships.",
    "proofOfResidenceRequired": true,
    "latitude": 40.4528202,
    "longitude": -80.0076324,
    "discountType": "free",
    "specialNotes": ""
  },
  {
    "id": "da-vinci-science-center",
    "name": "Da Vinci Science Center",
    "address": "815 West Hamilton Street",
    "city": "Allentown",
    "state": "PA",
    "country": "USA",
    "zip": "18101",
    "phone": "(484) 664- 1002",
    "website": "https://www.davincisciencecenter.org/",
    "admittancePolicy": "Two adults and up to four children under 18 covered by the membership.",
    "proofOfResidenceRequired": false,
    "latitude": 40.6000007,
    "longitude": -75.4798225,
    "discountType": "free",
    "specialNotes": ""
  },
  {
    "id": "discovery-space-of-central-pennsylvania",
    "name": "Discovery Space of Central Pennsylvania",
    "address": "1224 N Atherton St",
    "city": "State College",
    "state": "PA",
    "country": "USA",
    "zip": "16803",
    "phone": "(814) 234- 0200",
    "website": "https://discoveryspace.org/",
    "admittancePolicy": "Two adults and all children living in one household.",
    "proofOfResidenceRequired": true,
    "latitude": 40.8020892,
    "longitude": -77.8822939,
    "discountType": "free",
    "specialNotes": ""
  },
  {
    "id": "experience-children-s-museum",
    "name": "expERIEnce Children's Museum",
    "address": "420 French St",
    "city": "Erie",
    "state": "PA",
    "country": "USA",
    "zip": "16507",
    "phone": "(814) 453- 3743",
    "website": "https://www.eriechildrensmuseum.org/",
    "admittancePolicy": "Two adults and up to four children under 18.",
    "proofOfResidenceRequired": true,
    "latitude": 42.1312436,
    "longitude": -80.0850338,
    "discountType": "free",
    "specialNotes": ""
  },
  {
    "id": "lacawac-sanctuary-foundation",
    "name": "Lacawac Sanctuary Foundation",
    "address": "94 Sanctuary Rd",
    "city": "Lake Ariel",
    "state": "PA",
    "country": "USA",
    "zip": "18436- 6149",
    "phone": "(570) 689- 9494",
    "website": "https://www.lacawac.org/",
    "admittancePolicy": "General admission for two adults and up to four children in the same household. Passport members receive 10% on the gift shop.",
    "proofOfResidenceRequired": false,
    "latitude": 41.3792,
    "longitude": -75.3213,
    "discountType": "free",
    "specialNotes": ""
  },
  {
    "id": "lancaster-science-factory",
    "name": "Lancaster Science Factory",
    "address": "454 New Holland Ave",
    "city": "Lancaster",
    "state": "PA",
    "country": "USA",
    "zip": "17602",
    "phone": "(717) 509- 6363",
    "website": "https://www.lancastersciencefactory.org/",
    "admittancePolicy": "Parents and children (regardless of number of family members).",
    "proofOfResidenceRequired": false,
    "latitude": 40.0461706,
    "longitude": -76.2966112,
    "discountType": "free",
    "specialNotes": ""
  },
  {
    "id": "lewisburg-children-s-museum",
    "name": "Lewisburg Children's Museum",
    "address": "815 Market Street Suite 14",
    "city": "Lewisburg",
    "state": "PA",
    "country": "USA",
    "zip": "17837",
    "phone": "(570) 768- 4914",
    "website": "https://www.lewisburgchildrensmuseum.org",
    "admittancePolicy": "Free general admission for up to four (4) individuals (adults and/or children). Valid membership card and photo ID must be presented at the time of entry.",
    "proofOfResidenceRequired": true,
    "latitude": 40.9601009,
    "longitude": -76.89125,
    "discountType": "free",
    "specialNotes": ""
  },
  {
    "id": "moonshot-museum",
    "name": "Moonshot Museum",
    "address": "1016 N. Lincoln Ave.",
    "city": "Pittsburgh",
    "state": "PA",
    "country": "USA",
    "zip": "15233",
    "phone": "(412) 314- 4111",
    "website": "https://moonshotmuseum.org/",
    "admittancePolicy": "General admission for up to two adults and four children; at least one adult must be named on membership card. Photo ID required.",
    "proofOfResidenceRequired": true,
    "latitude": 40.450327,
    "longitude": -80.0201128,
    "discountType": "free",
    "specialNotes": ""
  },
  {
    "id": "national-watch-clock-museum",
    "name": "National Watch & Clock Museum",
    "address": "514 Poplar St",
    "city": "Columbia",
    "state": "PA",
    "country": "USA",
    "zip": "17512",
    "phone": "(717) 684- 8261",
    "website": "https://museum.nawcc.org",
    "admittancePolicy": "Two adults and up to four children under the age of 18 living in the same household.",
    "proofOfResidenceRequired": false,
    "latitude": 40.0370062,
    "longitude": -76.5022313,
    "discountType": "free",
    "specialNotes": ""
  },
  {
    "id": "north-museum-of-nature-and-science",
    "name": "North Museum of Nature and Science",
    "address": "400 College Ave",
    "city": "Lancaster",
    "state": "PA",
    "country": "USA",
    "zip": "17603",
    "phone": "(717) 358- 3941",
    "website": "https://northmuseum.org/",
    "admittancePolicy": "Two adults and up to four children or grandchildren under 18, for Museum admission only. Adult cardholders must be present and reside outside of Lancaster County, PA.",
    "proofOfResidenceRequired": true,
    "latitude": 40.0435449,
    "longitude": -76.3201458,
    "discountType": "free",
    "specialNotes": ""
  },
  {
    "id": "reading-public-museum",
    "name": "Reading Public Museum",
    "address": "500 Museum Rd",
    "city": "Reading",
    "state": "PA",
    "country": "USA",
    "zip": "19611",
    "phone": "(610) 371- 5850",
    "website": "https://www.readingpublicmuseum.org/",
    "admittancePolicy": "Two adults and up to four children/grandchildren (ages 4-17).",
    "proofOfResidenceRequired": false,
    "latitude": 40.3273499,
    "longitude": -75.951352,
    "discountType": "free",
    "specialNotes": ""
  },
  {
    "id": "university",
    "name": "University",
    "address": "1900 Benjamin Franklin Pkwy",
    "city": "Philadelphia",
    "state": "PA",
    "country": "USA",
    "zip": "19103",
    "phone": "(215) 299- 1022",
    "website": "https://ansp.org/",
    "admittancePolicy": "General admission for up to two named adults and up to five children under 18 listed on the reciprocal institution's membership. Does not include special exhibits or events.",
    "proofOfResidenceRequired": true,
    "latitude": 39.9568348,
    "longitude": -75.1712763,
    "discountType": "free",
    "specialNotes": ""
  },
  {
    "id": "the-franklin-institute",
    "name": "The Franklin Institute",
    "address": "222 N 20th St",
    "city": "Philadelphia",
    "state": "PA",
    "country": "USA",
    "zip": "19103",
    "phone": "(215) 448- 1200",
    "website": "https://fi.edu/en",
    "admittancePolicy": "General admission for people covered by the membership, up to a maximum of two adults and four children (ages 3–18). Subject to nonmember upgrade prices for special exhibitions.",
    "proofOfResidenceRequired": true,
    "latitude": 39.9582436,
    "longitude": -75.1730789,
    "discountType": "free",
    "specialNotes": ""
  },
  {
    "id": "the-state-museum-of-pennsylvania",
    "name": "The State Museum of Pennsylvania",
    "address": "300 North St",
    "city": "Harrisburg",
    "state": "PA",
    "country": "USA",
    "zip": "17120",
    "phone": "(717) 787- 4980",
    "website": "http://statemuseumpa.org/",
    "admittancePolicy": "Two adults and up to four children under 18 in the same household. Adult cardholders must be present. Passport privileges do not extend to non-family groups. Planetarium admission and group reservations are excluded.",
    "proofOfResidenceRequired": true,
    "latitude": 40.2658444,
    "longitude": -76.8854066,
    "discountType": "free",
    "specialNotes": ""
  },
  {
    "id": "whitaker-center-for-science-and-the-arts",
    "name": "Whitaker Center for Science and the Arts",
    "address": "222 Market Street",
    "city": "Harrisburg",
    "state": "PA",
    "country": "USA",
    "zip": "17101",
    "phone": "(717) 214- 2787",
    "website": "https://www.whitakercenter.org/",
    "admittancePolicy": "Two adult cardholders (parents/grandparents or caregivers) and up to six juniors under 18 who live in household, full- or part-time, e.g., joint custody or parental visitation, or as designated on the membership card. Passport privileges do not include admission to Select Medical Digital Cinema.",
    "proofOfResidenceRequired": true,
    "latitude": 40.2607909,
    "longitude": -76.881413,
    "discountType": "free",
    "specialNotes": ""
  },
  {
    "id": "centro-criollo-de-ciencia-y-tecnologia-del-caribe",
    "name": "Centro Criollo de Ciencia y Tecnologia del Caribe",
    "address": "59 Gautier Benitez",
    "city": "Caguas",
    "state": "PR",
    "country": "USA",
    "zip": "00725",
    "phone": "(787) 653- 6391",
    "website": "http://www.c3tec.org/inicio",
    "admittancePolicy": "Up to four people (adults and children) as listed on the membership card. Visitors show their card.",
    "proofOfResidenceRequired": false,
    "latitude": 18.231566,
    "longitude": -66.0349936,
    "discountType": "free",
    "specialNotes": ""
  },
  {
    "id": "ecoexploratorio",
    "name": "EcoExploratorio",
    "address": "525 Ave. Franklin Delano Roosevelt",
    "city": "Plaza las",
    "state": "",
    "country": "USA",
    "zip": "",
    "phone": "(787) 281- 9090",
    "website": "https://ecoexploratorio.org/",
    "admittancePolicy": "Up to five people; one must be named on membership card.",
    "proofOfResidenceRequired": false,
    "latitude": 18.4237661,
    "longitude": -66.0749242,
    "discountType": "free",
    "specialNotes": ""
  },
  {
    "id": "providence-children-s-museum",
    "name": "Providence Children's Museum",
    "address": "100 South St",
    "city": "Providence",
    "state": "RI",
    "country": "USA",
    "zip": "02903",
    "phone": "(401) 273- 5437",
    "website": "https://providencechildrensmuseum.org/",
    "admittancePolicy": "Three people per card.",
    "proofOfResidenceRequired": true,
    "latitude": 41.816779,
    "longitude": -71.409527,
    "discountType": "free",
    "specialNotes": ""
  },
  {
    "id": "roper-mountain-science-center",
    "name": "Roper Mountain Science Center",
    "address": "402 Roper Mountain Rd",
    "city": "Greenville",
    "state": "SC",
    "country": "USA",
    "zip": "29615",
    "phone": "(864) 355- 8900",
    "website": "https://www.ropermountain.org/",
    "admittancePolicy": "Two adults and their children. Free admission to regular public programs. Call ahead for details.",
    "proofOfResidenceRequired": false,
    "latitude": 34.8402661,
    "longitude": -82.3080112,
    "discountType": "free",
    "specialNotes": ""
  },
  {
    "id": "south-dakota-discovery-center",
    "name": "South Dakota Discovery Center",
    "address": "805 W Sioux Ave",
    "city": "Pierre",
    "state": "SD",
    "country": "USA",
    "zip": "57501",
    "phone": "(605) 224- 8295",
    "website": "https://sd-discovery.org/",
    "admittancePolicy": "All visitors are covered by home membership.",
    "proofOfResidenceRequired": false,
    "latitude": 44.3719408,
    "longitude": -100.363143,
    "discountType": "free",
    "specialNotes": ""
  },
  {
    "id": "washington-pavilion-of-arts-and-science",
    "name": "Washington Pavilion of Arts and Science",
    "address": "301 S Main Ave",
    "city": "Sioux Falls",
    "state": "SD",
    "country": "USA",
    "zip": "57104",
    "phone": "(605) 367- 6000",
    "website": "https://www.washingtonpavilion.org/",
    "admittancePolicy": "Two adults and all children under 18 living at the same address.",
    "proofOfResidenceRequired": true,
    "latitude": 43.543992,
    "longitude": -96.7290164,
    "discountType": "free",
    "specialNotes": ""
  },
  {
    "id": "adventure-science-center",
    "name": "Adventure Science Center",
    "address": "800 Fort Negley Blvd",
    "city": "Nashville",
    "state": "TN",
    "country": "USA",
    "zip": "37203",
    "phone": "(615) 862- 5160",
    "website": "https://www.adventuresci.org/",
    "admittancePolicy": "Two adults and four children 18 and under. Valid membership card required.",
    "proofOfResidenceRequired": true,
    "latitude": 36.147089,
    "longitude": -86.77598,
    "discountType": "free",
    "specialNotes": ""
  },
  {
    "id": "american-museum-of-science-energy",
    "name": "American Museum of Science & Energy",
    "address": "115 Main Street East",
    "city": "Oak Ridge",
    "state": "TN",
    "country": "USA",
    "zip": "37830",
    "phone": "(865) 294- 4531",
    "website": "https://amse.org/",
    "admittancePolicy": "Two adults accompanied by their children, stepchildren, and/or grandchildren.",
    "proofOfResidenceRequired": false,
    "latitude": 36.0127441,
    "longitude": -84.2527562,
    "discountType": "free",
    "specialNotes": ""
  },
  {
    "id": "children-s-museum-of-oak-ridge",
    "name": "Children's Museum of Oak Ridge",
    "address": "461 W Outer Dr",
    "city": "Oak Ridge",
    "state": "TN",
    "country": "USA",
    "zip": "37830- 3714",
    "phone": "(865) 482- 1074",
    "website": "https://childrensmuseumofoakridge.org",
    "admittancePolicy": "Free general admission for up to two adults and four children for qualifying Group memberships (including at least one cardholder) and for one cardholder for qualifying Individual memberships. Photo ID required for cardholder.",
    "proofOfResidenceRequired": true,
    "latitude": 36.0231495,
    "longitude": -84.2720032,
    "discountType": "free",
    "specialNotes": ""
  },
  {
    "id": "discovery-center-at-murfree-spring",
    "name": "Discovery Center at Murfree Spring",
    "address": "502 SE Broad St",
    "city": "Murfreesboro",
    "state": "TN",
    "country": "USA",
    "zip": "37130",
    "phone": "(615) 890- 2300",
    "website": "https://explorethedc.org/",
    "admittancePolicy": "Two adults and up to four children of the same household.",
    "proofOfResidenceRequired": true,
    "latitude": 35.8387063,
    "longitude": -86.3871485,
    "discountType": "free",
    "specialNotes": ""
  },
  {
    "id": "discovery-park-of-america",
    "name": "Discovery Park of America",
    "address": "830 Everett Blvd",
    "city": "Union City",
    "state": "TN",
    "country": "USA",
    "zip": "38261",
    "phone": "(731) 885- 5455",
    "website": "https://discoveryparkofamerica.com/",
    "admittancePolicy": "Two adults ages 18+ and up to four children ages 4-17. (Children age 3 and under are always free.)",
    "proofOfResidenceRequired": false,
    "latitude": 36.438823,
    "longitude": -89.0698335,
    "discountType": "free",
    "specialNotes": ""
  },
  {
    "id": "hands-on-discovery-center",
    "name": "Hands On! Discovery Center",
    "address": "1212 Suncrest Dr",
    "city": "Gray",
    "state": "TN",
    "country": "USA",
    "zip": "37615",
    "phone": "(423) 434- 4263",
    "website": "https://visithandson.org/",
    "admittancePolicy": "General admission for those listed on home museum membership card; children 3 and younger are free. Includes admission to Gray Fossil Site. Does not include Tesla shows or Paleo tours. Half-price for members of Passport museums within a 90-mile radius.",
    "proofOfResidenceRequired": true,
    "latitude": 36.3865349,
    "longitude": -82.4985104,
    "discountType": "free",
    "specialNotes": ""
  },
  {
    "id": "hands-on-science-center",
    "name": "Hands-On Science Center",
    "address": "101 Mitchell Blvd",
    "city": "Tullahoma",
    "state": "TN",
    "country": "USA",
    "zip": "37388",
    "phone": "(931) 455- 8387",
    "website": "https://www.hosc.org/",
    "admittancePolicy": "Parents and minor children at the same address, or grandparents and grandchildren.",
    "proofOfResidenceRequired": false,
    "latitude": 35.363197,
    "longitude": -86.1940354,
    "discountType": "free",
    "specialNotes": ""
  },
  {
    "id": "lichterman-nature-center",
    "name": "Lichterman Nature Center",
    "address": "5992 Quince Road",
    "city": "Memphis",
    "state": "TN",
    "country": "USA",
    "zip": "38119",
    "phone": "(901) 636- 2211",
    "website": "https://www.memphismuseums.org/",
    "admittancePolicy": "Two adults and their dependent children/grandchildren under 18 (up to 10 children).",
    "proofOfResidenceRequired": true,
    "latitude": 35.09155,
    "longitude": -89.8642532,
    "discountType": "free",
    "specialNotes": ""
  },
  {
    "id": "memphis-museums-of-science-and-history",
    "name": "Memphis Museums of Science and History",
    "address": "3050 Central Ave",
    "city": "Memphis",
    "state": "TN",
    "country": "USA",
    "zip": "38111",
    "phone": "(901) 636- 2362",
    "website": "https://www.memphismuseums.org/",
    "admittancePolicy": "Two adults and their dependent children/grandchildren under 18 (up to 10 children).",
    "proofOfResidenceRequired": true,
    "latitude": 35.1253438,
    "longitude": -89.9593636,
    "discountType": "free",
    "specialNotes": ""
  },
  {
    "id": "muse-knoxville",
    "name": "Muse Knoxville",
    "address": "516 N Beaman St",
    "city": "Knoxville",
    "state": "TN",
    "country": "USA",
    "zip": "37914",
    "phone": "(865) 594- 1494",
    "website": "https://www.themuseknoxville.org/",
    "admittancePolicy": "All individuals covered by membership, cardholder(s) must be present.",
    "proofOfResidenceRequired": true,
    "latitude": 35.9976865,
    "longitude": -83.8854259,
    "discountType": "free",
    "specialNotes": ""
  },
  {
    "id": "children-s-museum-houston",
    "name": "Children's Museum Houston",
    "address": "1500 Binz St",
    "city": "Houston",
    "state": "TX",
    "country": "USA",
    "zip": "77004",
    "phone": "(713) 522- 1138",
    "website": "https://www.cmhouston.org/",
    "admittancePolicy": "Household family members, or grandparents and grandchildren, up to six people.",
    "proofOfResidenceRequired": true,
    "latitude": 29.7225435,
    "longitude": -95.3852452,
    "discountType": "free",
    "specialNotes": ""
  },
  {
    "id": "corpus-christi-museum-of-science-history",
    "name": "Corpus Christi Museum of Science & History",
    "address": "1900 N Chaparral St",
    "city": "Corpus Christi",
    "state": "TX",
    "country": "USA",
    "zip": "78401",
    "phone": "(361) 826- 4667",
    "website": "https://www.ccmuseum.com/",
    "admittancePolicy": "Family of four people.",
    "proofOfResidenceRequired": false,
    "latitude": 27.8103016,
    "longitude": -97.3952083,
    "discountType": "free",
    "specialNotes": ""
  },
  {
    "id": "don-harrington-discovery-center",
    "name": "Don Harrington Discovery Center",
    "address": "1200 Streit Dr",
    "city": "Amarillo",
    "state": "TX",
    "country": "USA",
    "zip": "79106",
    "phone": "(806) 355- 9547",
    "website": "https://discoverycenteramarillo.org/",
    "admittancePolicy": "Parents, children, and stepchildren; or grandparents with grandchildren (not adult children).",
    "proofOfResidenceRequired": false,
    "latitude": 35.2002687,
    "longitude": -101.9133263,
    "discountType": "free",
    "specialNotes": ""
  },
  {
    "id": "fort-worth-museum-of-science-and-history",
    "name": "Fort Worth Museum of Science and History",
    "address": "1600 Gendy St",
    "city": "Fort Worth",
    "state": "TX",
    "country": "USA",
    "zip": "76107",
    "phone": "(817) 255- 9300",
    "website": "https://www.fwmuseum.org/",
    "admittancePolicy": "Two adults and up to two children under 18 living in the same household. Does not include tickets to the Jane & John Justin Foundation Omni Theater or parking. Not valid during the Fort Worth Stock Show and Rodeo.",
    "proofOfResidenceRequired": true,
    "latitude": 32.744244,
    "longitude": -97.3692589,
    "discountType": "free",
    "specialNotes": ""
  },
  {
    "id": "sanctuary",
    "name": "Sanctuary",
    "address": "1 Nature Pl",
    "city": "McKinney",
    "state": "TX",
    "country": "USA",
    "zip": "75069",
    "phone": "(972) 562- 5566",
    "website": "https://www.heardmuseum.org/",
    "admittancePolicy": "Parents and children (18 and under) of the same household, or grandparents and grandchildren (18 and under), up to six people.",
    "proofOfResidenceRequired": true,
    "latitude": 33.162334,
    "longitude": -96.6189633,
    "discountType": "free",
    "specialNotes": ""
  },
  {
    "id": "center",
    "name": "Center",
    "address": "3640 Dark Sky Dr",
    "city": "McDonald Obs",
    "state": "TX",
    "country": "USA",
    "zip": "79734",
    "phone": "(432) 426- 3640",
    "website": "https://mcdonaldobservatory.org/",
    "admittancePolicy": "Passport visitors receive free general admission.",
    "proofOfResidenceRequired": false,
    "latitude": 31.7952814,
    "longitude": -94.1803576,
    "discountType": "free",
    "specialNotes": ""
  },
  {
    "id": "perot-museum-of-nature-and-science",
    "name": "Perot Museum of Nature and Science",
    "address": "2201 N Field St",
    "city": "Dallas",
    "state": "TX",
    "country": "USA",
    "zip": "75201",
    "phone": "(214) 428- 5555",
    "website": "https://www.perotmuseum.org/",
    "admittancePolicy": "Two adults and three children (12 and under) living in the same household.",
    "proofOfResidenceRequired": true,
    "latitude": 32.7869273,
    "longitude": -96.8064108,
    "discountType": "free",
    "specialNotes": ""
  },
  {
    "id": "science-spectrum",
    "name": "Science Spectrum",
    "address": "2579 South Loop 289",
    "city": "Lubbock",
    "state": "TX",
    "country": "USA",
    "zip": "79423",
    "phone": "(806) 745- 2525",
    "website": "https://www.sciencespectrum.org",
    "admittancePolicy": "Honors the number of visitors valid on the membership, up to a maximum of five (one adult listed on the membership card must attend). Passport visitors receive discounted theater and special exhibits at member ticket rates.",
    "proofOfResidenceRequired": true,
    "latitude": 33.5283472,
    "longitude": -101.8763222,
    "discountType": "free",
    "specialNotes": ""
  },
  {
    "id": "space-center-houston",
    "name": "Space Center Houston",
    "address": "1601 NASA Parkway",
    "city": "Houston",
    "state": "TX",
    "country": "USA",
    "zip": "77058",
    "phone": "(281) 244- 2100",
    "website": "https://spacecenter.org/",
    "admittancePolicy": "Up to two adults (ages 12+) and up to two children (ages 4–11) general admission tickets per membership; does not include special events. At least one adult (age 18+) named on valid membership card must attend. Residency rule enforced.",
    "proofOfResidenceRequired": true,
    "latitude": 29.5513096,
    "longitude": -95.0974022,
    "discountType": "free",
    "specialNotes": ""
  },
  {
    "id": "texas-science-natural-history-museum",
    "name": "Texas Science & Natural History Museum",
    "address": "2400 Trinity St",
    "city": "Austin",
    "state": "TX",
    "country": "USA",
    "zip": "78712- 1620",
    "phone": "(512) 232- 0886",
    "website": "https://sciencemuseum.utexas.edu/",
    "admittancePolicy": "Free general admission for up to two named ASTC Passport Program members.",
    "proofOfResidenceRequired": true,
    "latitude": 30.2869741,
    "longitude": -97.7323621,
    "discountType": "free",
    "specialNotes": ""
  },
  {
    "id": "the-discovery-science-place",
    "name": "The Discovery Science Place",
    "address": "308 North Broadway Avenue",
    "city": "Tyler",
    "state": "TX",
    "country": "USA",
    "zip": "75702",
    "phone": "(903) 533- 8011",
    "website": "https://www.discoveryscienceplace.org/",
    "admittancePolicy": "General admission for two adults (at least one must be listed on membership card) and up to four children of the same household. Excludes Maker Faire and special events.",
    "proofOfResidenceRequired": true,
    "latitude": 32.3529871,
    "longitude": -95.3007699,
    "discountType": "free",
    "specialNotes": ""
  },
  {
    "id": "the-doseum",
    "name": "The DoSeum",
    "address": "2800 Broadway",
    "city": "San Antonio",
    "state": "TX",
    "country": "USA",
    "zip": "78209",
    "phone": "(210) 212- 4453",
    "website": "https://www.thedoseum.org/",
    "admittancePolicy": "Free general admission for up to three guests. Must present an ID and proof of active membership.",
    "proofOfResidenceRequired": true,
    "latitude": 29.4525993,
    "longitude": -98.4721451,
    "discountType": "free",
    "specialNotes": ""
  },
  {
    "id": "the-health-museum",
    "name": "The Health Museum",
    "address": "1515 Hermann Dr",
    "city": "Houston",
    "state": "TX",
    "country": "USA",
    "zip": "77004",
    "phone": "(713) 521- 1515",
    "website": "https://thehealthmuseum.org/",
    "admittancePolicy": "Household family members or grandparents and grandchildren up to six people.",
    "proofOfResidenceRequired": true,
    "latitude": 29.721723,
    "longitude": -95.3860185,
    "discountType": "free",
    "specialNotes": ""
  },
  {
    "id": "thinkery",
    "name": "Thinkery",
    "address": "1830 Simond Ave",
    "city": "Austin",
    "state": "TX",
    "country": "USA",
    "zip": "78723",
    "phone": "(512) 469- 6200",
    "website": "https://thinkeryaustin.org/",
    "admittancePolicy": "Four people (one adult listed on the membership card must be present).",
    "proofOfResidenceRequired": true,
    "latitude": 30.29758,
    "longitude": -97.705002,
    "discountType": "free",
    "specialNotes": ""
  },
  {
    "id": "witte-museum",
    "name": "Witte Museum",
    "address": "3801 Broadway",
    "city": "San Antonio",
    "state": "TX",
    "country": "USA",
    "zip": "78209",
    "phone": "(210) 357- 1900",
    "website": "https://www.wittemuseum.org",
    "admittancePolicy": "Free general admission for two adults and dependent children under 18; at least one adult must be named on membership card. Special exhibitions, programs or events subject to additional charge.",
    "proofOfResidenceRequired": false,
    "latitude": 29.4624737,
    "longitude": -98.4666899,
    "discountType": "free",
    "specialNotes": ""
  },
  {
    "id": "clark-planetarium",
    "name": "Clark Planetarium",
    "address": "110 S 400 W",
    "city": "Salt Lake City",
    "state": "UT",
    "country": "USA",
    "zip": "84101",
    "phone": "(385)- 468 - 7827",
    "website": "https://www.saltlakecounty.gov/clark-planetarium",
    "admittancePolicy": "Free admission for up to five family members to the Hansen Dome Theatre.",
    "proofOfResidenceRequired": false,
    "latitude": 40.7633217,
    "longitude": -111.9024427,
    "discountType": "free",
    "specialNotes": ""
  },
  {
    "id": "hutchings-museum",
    "name": "Hutchings Museum",
    "address": "55 N Center St",
    "city": "Lehi",
    "state": "UT",
    "country": "USA",
    "zip": "84043",
    "phone": "(801) 768- 7361",
    "website": "http://www.jhutchingsmuseum.com/",
    "admittancePolicy": "Any six people.",
    "proofOfResidenceRequired": false,
    "latitude": 40.4346864,
    "longitude": -111.8497711,
    "discountType": "free",
    "specialNotes": ""
  },
  {
    "id": "natural-history-museum-of-utah",
    "name": "Natural History Museum of Utah",
    "address": "301 S Wakara Way",
    "city": "Salt Lake City",
    "state": "UT",
    "country": "USA",
    "zip": "84108",
    "phone": "(801) 581- 6927",
    "website": "https://nhmu.utah.edu/",
    "admittancePolicy": "Two adults and all minor children at the same address.",
    "proofOfResidenceRequired": true,
    "latitude": 40.755211,
    "longitude": -111.8333825,
    "discountType": "free",
    "specialNotes": ""
  },
  {
    "id": "swaner-preserve-and-ecocenter",
    "name": "Swaner Preserve and EcoCenter",
    "address": "1258 Center Drive",
    "city": "Park City",
    "state": "UT",
    "country": "USA",
    "zip": "84098",
    "phone": "(435) 649- 1767",
    "website": "https://swanerecocenter.org/",
    "admittancePolicy": "Up to two adults and three children within same household (at least one must be named on membership email).",
    "proofOfResidenceRequired": false,
    "latitude": 40.7161,
    "longitude": -111.5433,
    "discountType": "free",
    "specialNotes": ""
  },
  {
    "id": "usu-eastern-prehistoric-museum",
    "name": "USU Eastern Prehistoric Museum",
    "address": "155 E Main St.",
    "city": "Price",
    "state": "UT",
    "country": "USA",
    "zip": "8450",
    "phone": "(435) 613- 5060",
    "website": "https://eastern.usu.edu/prehistoric-museum/",
    "admittancePolicy": "Free admission to households with ASTC member card.",
    "proofOfResidenceRequired": false,
    "latitude": 39.6001465,
    "longitude": -110.8080437,
    "discountType": "free",
    "specialNotes": ""
  },
  {
    "id": "echo-leahy-center-for-lake-champlain",
    "name": "ECHO, Leahy Center for Lake Champlain",
    "address": "1 College St",
    "city": "Burlington",
    "state": "VT",
    "country": "USA",
    "zip": "05401",
    "phone": "(802) 864- 1848",
    "website": "https://www.echovermont.org/",
    "admittancePolicy": "Up to four guests, need to show a membership card. (No need to distinguish between adults & children).",
    "proofOfResidenceRequired": true,
    "latitude": 44.476565,
    "longitude": -73.2210177,
    "discountType": "free",
    "specialNotes": ""
  },
  {
    "id": "fairbanks-museum-and-planetarium",
    "name": "Fairbanks Museum and Planetarium",
    "address": "1302 Main St",
    "city": "St Johnsbury",
    "state": "VT",
    "country": "USA",
    "zip": "05819",
    "phone": "(802) 748- 2372",
    "website": "https://www.fairbanksmuseum.org/",
    "admittancePolicy": "General admission for people covered by the membership, up to a maximum of two adults and four minor children.",
    "proofOfResidenceRequired": false,
    "latitude": 44.4200769,
    "longitude": -72.0197434,
    "discountType": "free",
    "specialNotes": ""
  },
  {
    "id": "children-s-science-center-lab",
    "name": "Children’s Science Center Lab",
    "address": "11948L Fair Oaks Mall",
    "city": "Fairfax",
    "state": "VA",
    "country": "USA",
    "zip": "22033",
    "phone": "(703) 648- 3130",
    "website": "https://childsci.org/",
    "admittancePolicy": "Two adults plus a maximum of two children (ages 2+) for one 2 hour timed-entry per membership card. Visitors must email tickets@childsci.org to receive a discount code to reserve tickets in advance.",
    "proofOfResidenceRequired": true,
    "latitude": 38.8619,
    "longitude": -77.3595,
    "discountType": "free",
    "specialNotes": ""
  },
  {
    "id": "children-s-museum-of-virginia",
    "name": "Children's Museum of Virginia",
    "address": "221 High St",
    "city": "Portsmouth",
    "state": "VA",
    "country": "USA",
    "zip": "23704",
    "phone": "(757) 393- 8983",
    "website": "https://childrensmuseumvirginia.com/",
    "admittancePolicy": "General admission for up to four (4) people OR the max number allowed on your membership, if less than four (4) people. One adult listed on the membership must be present. Valid membership card and photo ID must be presented at the time of entry. Advance online reservations required.",
    "proofOfResidenceRequired": true,
    "latitude": 36.8348835,
    "longitude": -76.2989323,
    "discountType": "free",
    "specialNotes": ""
  },
  {
    "id": "nauticus",
    "name": "Nauticus",
    "address": "1 Waterside Dr",
    "city": "Norfolk",
    "state": "VA",
    "country": "USA",
    "zip": "23510",
    "phone": "(757) 664- 1000",
    "website": "https://nauticus.org/",
    "admittancePolicy": "Four people (ages 3+).",
    "proofOfResidenceRequired": true,
    "latitude": 36.8477284,
    "longitude": -76.2950957,
    "discountType": "free",
    "specialNotes": ""
  },
  {
    "id": "danville-science-center",
    "name": "Danville Science Center",
    "address": "677 Craghead St",
    "city": "Danville",
    "state": "VA",
    "country": "USA",
    "zip": "24541",
    "phone": "(434) 791- 5160",
    "website": "https://www.smv.org/",
    "admittancePolicy": "Two adults and three children; membership card required.",
    "proofOfResidenceRequired": true,
    "latitude": 36.584635,
    "longitude": -79.3858416,
    "discountType": "free",
    "specialNotes": ""
  },
  {
    "id": "science-museum-of-virginia",
    "name": "Science Museum of Virginia",
    "address": "2500 W Broad St",
    "city": "Richmond",
    "state": "VA",
    "country": "USA",
    "zip": "23220",
    "phone": "(804) 864- 1400",
    "website": "https://www.smv.org/",
    "admittancePolicy": "Two adults and three children; membership card required.",
    "proofOfResidenceRequired": true,
    "latitude": 37.5618681,
    "longitude": -77.4650329,
    "discountType": "free",
    "specialNotes": ""
  },
  {
    "id": "virginia-air-and-space-science-center",
    "name": "Virginia Air and Space Science Center",
    "address": "600 Settlers Landing Rd",
    "city": "Hampton",
    "state": "VA",
    "country": "USA",
    "zip": "23669",
    "phone": "(757) 727-0900 (ext. 735)",
    "website": "https://www.vasc.org/",
    "admittancePolicy": "Two adults and up to four children. (ages 3-18).",
    "proofOfResidenceRequired": true,
    "latitude": 37.0241295,
    "longitude": -76.3443534,
    "discountType": "free",
    "specialNotes": ""
  },
  {
    "id": "virginia-discovery-museum",
    "name": "Virginia Discovery Museum",
    "address": "524 E Main St",
    "city": "Charlottesville",
    "state": "VA",
    "country": "USA",
    "zip": "22902",
    "phone": "(434) 977- 1025",
    "website": "https://www.vadm.org/",
    "admittancePolicy": "Honors home museum’s definition of family (as stated by the number in family listed on card). Additional visitors pay general admission. East end of the downtown pedestrian mall. Suggested Parking: Market Street Garage (550 E Market St) or Water Street Garage (200 E Water St). First Hour free and museum validates the second hour.",
    "proofOfResidenceRequired": false,
    "latitude": 38.0293951,
    "longitude": -78.4779781,
    "discountType": "free",
    "specialNotes": ""
  },
  {
    "id": "virginia-living-museum",
    "name": "Virginia Living Museum",
    "address": "524 J Clyde Morris Blvd",
    "city": "Newport News",
    "state": "VA",
    "country": "USA",
    "zip": "23601",
    "phone": "(757) 595- 1900",
    "website": "https://thevlm.org/",
    "admittancePolicy": "Up to two member adults and two children under 18 within the same household. Special events, planetarium, and exhibits with additional fees not included. No other discounts apply.",
    "proofOfResidenceRequired": true,
    "latitude": 37.0699441,
    "longitude": -76.4794471,
    "discountType": "free",
    "specialNotes": ""
  },
  {
    "id": "virginia-museum-of-natural-history",
    "name": "Virginia Museum of Natural History",
    "address": "21 Starling Avenue",
    "city": "Martinsville",
    "state": "VA",
    "country": "USA",
    "zip": "24112",
    "phone": "(276) 634- 4141",
    "website": "https://www.vmnh.net/",
    "admittancePolicy": "Two adults and all minor children living at the same address. Grandparents may be accompanied by grandchildren under 18.",
    "proofOfResidenceRequired": false,
    "latitude": 36.6865382,
    "longitude": -79.8634416,
    "discountType": "free",
    "specialNotes": ""
  },
  {
    "id": "kidsquest-children-s-museum",
    "name": "KidsQuest Children's Museum",
    "address": "1116 108th Ave NE",
    "city": "Bellevue",
    "state": "WA",
    "country": "USA",
    "zip": "98004",
    "phone": "(425) 637- 8100",
    "website": "https://www.kidsquestmuseum.org/",
    "admittancePolicy": "Free two full price admissions. Additional visitors pay general admission.",
    "proofOfResidenceRequired": true,
    "latitude": 47.6208665,
    "longitude": -122.1959043,
    "discountType": "free",
    "specialNotes": ""
  },
  {
    "id": "mobius-discovery-center",
    "name": "Mobius Discovery Center",
    "address": "331 N Post St",
    "city": "Spokane",
    "state": "WA",
    "country": "USA",
    "zip": "99201",
    "phone": "(509) 321- 7121",
    "website": "https://mobiusdiscoverycenter.org/",
    "admittancePolicy": "Two adults per household and any four children.",
    "proofOfResidenceRequired": true,
    "latitude": 47.661121,
    "longitude": -117.423971,
    "discountType": "free",
    "specialNotes": ""
  },
  {
    "id": "pacific-science-center",
    "name": "Pacific Science Center",
    "address": "200 2nd Ave N",
    "city": "Seattle",
    "state": "WA",
    "country": "USA",
    "zip": "98109",
    "phone": "(206) 443- 2924",
    "website": "https://www.pacificsciencecenter.org/",
    "admittancePolicy": "Two adults and up to six youth. Additional events, IMAX movies, and certain traveling exhibits with additional fees not included.",
    "proofOfResidenceRequired": true,
    "latitude": 47.6193402,
    "longitude": -122.3507785,
    "discountType": "free",
    "specialNotes": ""
  },
  {
    "id": "palouse-discovery-science-center",
    "name": "Palouse Discovery Science Center",
    "address": "950 NE Nelson Ct",
    "city": "Pullman",
    "state": "WA",
    "country": "USA",
    "zip": "99163",
    "phone": "(509) 332- 6869",
    "website": "https://www.palousescience.net/",
    "admittancePolicy": "2 Adults and Up to 6 children within the same household.",
    "proofOfResidenceRequired": false,
    "latitude": 46.7518077,
    "longitude": -117.1647118,
    "discountType": "free",
    "specialNotes": ""
  },
  {
    "id": "reach-museum",
    "name": "REACH Museum",
    "address": "1943 Columbia Park Trail",
    "city": "Richland",
    "state": "WA",
    "country": "USA",
    "zip": "99352",
    "phone": "(509) 943- 4100",
    "website": "https://visitthereach.us/",
    "admittancePolicy": "Family Membership: two adults and up to four children up to 18. Individual Memberships: the named cardholder only can be admitted.",
    "proofOfResidenceRequired": false,
    "latitude": 46.2361654,
    "longitude": -119.2167746,
    "discountType": "free",
    "specialNotes": ""
  },
  {
    "id": "the-museum-of-flight-foundation",
    "name": "The Museum of Flight Foundation",
    "address": "9404 E Marginal Way S",
    "city": "Tukwila",
    "state": "WA",
    "country": "USA",
    "zip": "98108",
    "phone": "(206) 764- 5700",
    "website": "https://www.museumofflight.org/",
    "admittancePolicy": "Two adults and up to four children/youth under 18.",
    "proofOfResidenceRequired": false,
    "latitude": 47.5189448,
    "longitude": -122.3000728,
    "discountType": "free",
    "specialNotes": ""
  },
  {
    "id": "wenatchee-valley-museum-cultural-center",
    "name": "Wenatchee Valley Museum & Cultural Center",
    "address": "127 S Mission St",
    "city": "Wenatchee",
    "state": "WA",
    "country": "USA",
    "zip": "98801",
    "phone": "(509) 888- 6240",
    "website": "https://www.wenatcheevalleymuseum.org/",
    "admittancePolicy": "Two adults and children or grandchildren under 18; 10% store discount.",
    "proofOfResidenceRequired": true,
    "latitude": 47.4224799,
    "longitude": -120.310936,
    "discountType": "free",
    "specialNotes": ""
  },
  {
    "id": "yakima-valley-museum",
    "name": "Yakima Valley Museum",
    "address": "2105 Tieton Dr",
    "city": "Yakima",
    "state": "WA",
    "country": "USA",
    "zip": "98902- 3766",
    "phone": "(509) 248- 0747",
    "website": "https://www.yvmuseum.org/",
    "admittancePolicy": "Two adults and children or grandchildren under 18. Two adults and children or grandchildren under 18.",
    "proofOfResidenceRequired": true,
    "latitude": 46.5929166,
    "longitude": -120.5378261,
    "discountType": "free",
    "specialNotes": ""
  },
  {
    "id": "huntington-museum-of-art",
    "name": "Huntington Museum of Art",
    "address": "2033 McCoy Rd",
    "city": "Huntington",
    "state": "WV",
    "country": "USA",
    "zip": "25701",
    "phone": "(304) 529- 2701",
    "website": "https://www.hmoa.org/",
    "admittancePolicy": "Parents with children, or grandparents with children.",
    "proofOfResidenceRequired": false,
    "latitude": 38.3929025,
    "longitude": -82.4346805,
    "discountType": "free",
    "specialNotes": ""
  },
  {
    "id": "barlow-planetarium-at-uwo-fox-cities-menasha-wi",
    "name": "Barlow Planetarium at UWO-Fox Cities",
    "address": "1478 Midway Road",
    "city": "Menasha",
    "state": "WI",
    "country": "USA",
    "zip": "54952",
    "phone": "(920) 832- 2848",
    "website": "https://uwosh.edu/barlow",
    "admittancePolicy": "Free admission to any star or laser show for two adults and their children under 18 living in same household, for a single show per day. Please visit our website homepage and click on the ASTC link to reserve your tickets.",
    "proofOfResidenceRequired": true,
    "latitude": 44.2315652,
    "longitude": -88.4158372,
    "discountType": "free",
    "specialNotes": ""
  },
  {
    "id": "building-for-kids-children-s-museum",
    "name": "Building for Kids Children's Museum",
    "address": "100 W College Ave",
    "city": "Appleton",
    "state": "WI",
    "country": "USA",
    "zip": "54911",
    "phone": "(920) 734- 3226",
    "website": "https://www.buildingforkids.org/",
    "admittancePolicy": "Two adults and children living together in the same household at the same address.",
    "proofOfResidenceRequired": true,
    "latitude": 44.262263,
    "longitude": -88.4069127,
    "discountType": "free",
    "specialNotes": ""
  },
  {
    "id": "cable-natural-history-museum",
    "name": "Cable Natural History Museum",
    "address": "PO Box 416",
    "city": "13470 County Hwy M",
    "state": "Cable",
    "country": "USA",
    "zip": "",
    "phone": "(715) 798- 3890",
    "website": "https://www.cablemuseum.org/",
    "admittancePolicy": "Free general admission for one household.",
    "proofOfResidenceRequired": false,
    "latitude": 46.2081449,
    "longitude": -91.2914093,
    "discountType": "free",
    "specialNotes": ""
  },
  {
    "id": "children-s-museum-of-eau-claire",
    "name": "Children's Museum of Eau Claire",
    "address": "126 N Barstow St",
    "city": "Eau Claire",
    "state": "WI",
    "country": "USA",
    "zip": "54703",
    "phone": "(715) 832- 5437",
    "website": "https://www.childrensmuseumec.com/",
    "admittancePolicy": "Two adults and all children in same household, listed on the membership card. Photo ID required for cardholder.",
    "proofOfResidenceRequired": true,
    "latitude": 44.8141035,
    "longitude": -91.5011585,
    "discountType": "free",
    "specialNotes": ""
  },
  {
    "id": "children-s-museum-of-la-crosse",
    "name": "Children's Museum of La Crosse",
    "address": "207 5th Ave S",
    "city": "La Crosse",
    "state": "WI",
    "country": "USA",
    "zip": "54601",
    "phone": "(608) 784- 2652",
    "website": "https://www.funmuseum.org/",
    "admittancePolicy": "Up to six people; one must be named on card.",
    "proofOfResidenceRequired": true,
    "latitude": 43.8107686,
    "longitude": -91.249737,
    "discountType": "free",
    "specialNotes": ""
  },
  {
    "id": "discovery-world",
    "name": "Discovery World",
    "address": "500 N Harbor Dr",
    "city": "Milwaukee",
    "state": "WI",
    "country": "USA",
    "zip": "53202",
    "phone": "(414) 765- 9966",
    "website": "https://www.discoveryworld.org/",
    "admittancePolicy": "Up to two named adult cardholders and member children age 17 and under. Photo ID with cardholder’s current home address required. General admission rates apply for additional guests.",
    "proofOfResidenceRequired": true,
    "latitude": 43.0369136,
    "longitude": -87.8961382,
    "discountType": "free",
    "specialNotes": ""
  },
  {
    "id": "eaa-aviation-museum",
    "name": "EAA Aviation Museum",
    "address": "3000 Poberezny Rd",
    "city": "Oshkosh",
    "state": "WI",
    "country": "USA",
    "zip": "54902",
    "phone": "(920) 426- 4800",
    "website": "https://www.eaa.org/eaa",
    "admittancePolicy": "Two adults and their children under 18 (same household).",
    "proofOfResidenceRequired": true,
    "latitude": 43.9841645,
    "longitude": -88.5782163,
    "discountType": "free",
    "specialNotes": ""
  },
  {
    "id": "madison-children-s-museum",
    "name": "Madison Children's Museum",
    "address": "100 N Hamilton St",
    "city": "Madison",
    "state": "WI",
    "country": "USA",
    "zip": "53703",
    "phone": "(608) 256- 6445",
    "website": "https://madisonchildrensmuseum.org/",
    "admittancePolicy": "Up to six people listed on the membership. Valid membership card, and photo ID for cardholder, required. Some restrictions apply; call ahead for more information.",
    "proofOfResidenceRequired": true,
    "latitude": 43.0767722,
    "longitude": -89.3843617,
    "discountType": "free",
    "specialNotes": ""
  },
  {
    "id": "milwaukee-public-museum",
    "name": "Milwaukee Public Museum",
    "address": "800 W Wells St",
    "city": "Milwaukee",
    "state": "WI",
    "country": "USA",
    "zip": "53233",
    "phone": "(414) 278- 2700",
    "website": "http://www.mpm.edu/",
    "admittancePolicy": "Two adults in the same household and children or grandchildren 17 and under. Limited to general exhibit areas only; no other discounts apply.",
    "proofOfResidenceRequired": false,
    "latitude": 43.0407156,
    "longitude": -87.9213388,
    "discountType": "free",
    "specialNotes": ""
  },
  {
    "id": "national-railroad-museum",
    "name": "National Railroad Museum",
    "address": "2285 S Broadway",
    "city": "Green Bay",
    "state": "WI",
    "country": "USA",
    "zip": "54304",
    "phone": "(920) 437- 7623",
    "website": "https://nationalrrmuseum.org/",
    "admittancePolicy": "Two adults and children/grandchildren (18 and under) in the household. Includes free train rides (May– September daily; weekends in October). Does not include ticketed special events.",
    "proofOfResidenceRequired": false,
    "latitude": 44.4831192,
    "longitude": -88.0480296,
    "discountType": "free",
    "specialNotes": ""
  },
  {
    "id": "neville-public-museum",
    "name": "Neville Public Museum",
    "address": "210 Museum Pl",
    "city": "Green Bay",
    "state": "WI",
    "country": "USA",
    "zip": "54303",
    "phone": "(920) 448- 4460",
    "website": "https://www.nevillepublicmuseum.org",
    "admittancePolicy": "Two adults and their children/grandchildren under 18.",
    "proofOfResidenceRequired": true,
    "latitude": 44.5178406,
    "longitude": -88.018615,
    "discountType": "free",
    "specialNotes": ""
  },
  {
    "id": "the-science-zone",
    "name": "The Science Zone",
    "address": "222 E Collins Dr",
    "city": "Casper",
    "state": "WY",
    "country": "USA",
    "zip": "82601",
    "phone": "(307) 473- 9663",
    "website": "https://thesciencezone.org/",
    "admittancePolicy": "Two adults and their children under 18 living in the same household.",
    "proofOfResidenceRequired": false,
    "latitude": 42.84701,
    "longitude": -106.3230463,
    "discountType": "free",
    "specialNotes": ""
  },
  {
    "id": "technology-centre",
    "name": "Technology Centre",
    "address": "King Edward Terrace",
    "city": "Canberra",
    "state": "",
    "country": "Australia",
    "zip": "Australian Capital",
    "phone": "+61 262702800",
    "website": "https://www.questacon.edu.au/",
    "admittancePolicy": "Two adults and up to three children 4–16.",
    "proofOfResidenceRequired": false,
    "latitude": -35.2971166,
    "longitude": 149.1265263,
    "discountType": "free",
    "specialNotes": ""
  },
  {
    "id": "scitech-discovery-centre",
    "name": "Scitech Discovery Centre",
    "address": "City West Centre Corner Railway Street &",
    "city": "",
    "state": "",
    "country": "Australia",
    "zip": "",
    "phone": "+61 892150700",
    "website": "https://www.scitech.org.au/",
    "admittancePolicy": "Mini Group: two adults + two children or one adult + three children. Mini Group: two adults + three children or one adult + four children.",
    "proofOfResidenceRequired": false,
    "latitude": -31.9505,
    "longitude": 115.8605,
    "discountType": "free",
    "specialNotes": ""
  },
  {
    "id": "bermuda-underwater-exploration-institute",
    "name": "Bermuda Underwater Exploration Institute",
    "address": "40 Crow Lane",
    "city": "Pembroke",
    "state": "",
    "country": "Bermuda",
    "zip": "HM19",
    "phone": "(441) 292- 7219",
    "website": "https://www.buei.bm/",
    "admittancePolicy": "Parents and up to four children living at the same household.",
    "proofOfResidenceRequired": false,
    "latitude": 32.2936656,
    "longitude": -64.772988,
    "discountType": "free",
    "specialNotes": ""
  },
  {
    "id": "discovery-centre",
    "name": "Discovery Centre",
    "address": "1215 Lower Water St",
    "city": "Halifax",
    "state": "NS",
    "country": "Canada",
    "zip": "B3J 3S8",
    "phone": "(902) 492- 4422",
    "website": "https://thediscoverycentre.ca/",
    "admittancePolicy": "Up to two adults and five children under 18 as listed on membership card. General admission only, does not include special events, discounts, or Dome Theatre tickets.",
    "proofOfResidenceRequired": true,
    "latitude": 44.6416898,
    "longitude": -63.5678259,
    "discountType": "free",
    "specialNotes": ""
  },
  {
    "id": "museum-ottawa-on",
    "name": "Museum",
    "address": "1867 St. Laurent Boulevard",
    "city": "Ottawa",
    "state": "ON",
    "country": "Canada",
    "zip": "K1G 5A3",
    "phone": "(613) 991- 3044",
    "website": "https://ingeniumcanada.org/",
    "admittancePolicy": "Up to two adults and up to four youth under 18. General admission only. Includes Canada Aviation and Space Museum (11 Aviation Parkway, Ottawa, ON K1K 4Y5) and Canada Agriculture and Food Museum (901 Prince of Wales Drive, Ottawa, ON K2C 3K1).",
    "proofOfResidenceRequired": false,
    "latitude": 45.4034995,
    "longitude": -75.6189074,
    "discountType": "free",
    "specialNotes": ""
  },
  {
    "id": "johnson-geo-centre",
    "name": "Johnson Geo Centre",
    "address": "175 Signal Hill Rd",
    "city": "St. John's",
    "state": "",
    "country": "Canada",
    "zip": "Newfoundland and",
    "phone": "(709) 864- 3200",
    "website": "https://www.geocentre.ca/",
    "admittancePolicy": "Up to two adults and three children under 18. General admission only; does not include special events, discounts, or movie tickets.",
    "proofOfResidenceRequired": false,
    "latitude": 47.5729523,
    "longitude": -52.6897219,
    "discountType": "free",
    "specialNotes": ""
  },
  {
    "id": "markham-museum",
    "name": "Markham Museum",
    "address": "9350 Markham Rd",
    "city": "Markham",
    "state": "ON",
    "country": "Canada",
    "zip": "L3P 3J3",
    "phone": "(905) 305- 5970",
    "website": "https://www.markhammuseum.ca",
    "admittancePolicy": "Free general admission for up to two adults and four children, same household. Not valid for special events or pre-registered programs.",
    "proofOfResidenceRequired": false,
    "latitude": 43.893388,
    "longitude": -79.2663601,
    "discountType": "free",
    "specialNotes": ""
  },
  {
    "id": "montreal-science-centre",
    "name": "Montreal Science Centre",
    "address": "2 de la Commune St W",
    "city": "Montreal",
    "state": "QC",
    "country": "Canada",
    "zip": "H2Y 4B2",
    "phone": "(877) 496- 4724",
    "website": "https://www.montrealsciencecentre.com/",
    "admittancePolicy": "Two adults and two children, or one adult and three children. For members with family membership. Individual membership will receive one access ticket.",
    "proofOfResidenceRequired": false,
    "latitude": 45.5046281,
    "longitude": -73.5513467,
    "discountType": "free",
    "specialNotes": ""
  },
  {
    "id": "okanagan-science-centre",
    "name": "Okanagan Science Centre",
    "address": "2704 Highway 6",
    "city": "Vernon",
    "state": "BC",
    "country": "Canada",
    "zip": "V1T 5G5",
    "phone": "(250) 545- 3644",
    "website": "https://www.okscience.ca/",
    "admittancePolicy": "Parents and children under 18 living in the same residence.",
    "proofOfResidenceRequired": false,
    "latitude": 50.2606009,
    "longitude": -119.270582,
    "discountType": "free",
    "specialNotes": ""
  },
  {
    "id": "rossland-museum-and-discovery-centre",
    "name": "Rossland Museum and Discovery Centre",
    "address": "1100 British Columbia 3B",
    "city": "Rossland",
    "state": "",
    "country": "Canada",
    "zip": "British",
    "phone": "(250) 362- 7722",
    "website": "https://www.rosslandmuseum.ca/",
    "admittancePolicy": "Two care-giving adults and immediately supervised children.",
    "proofOfResidenceRequired": false,
    "latitude": 49.0771441,
    "longitude": -117.7985558,
    "discountType": "free",
    "specialNotes": ""
  },
  {
    "id": "saskatchewan-science-centre",
    "name": "Saskatchewan Science Centre",
    "address": "2903 Powerhouse Dr",
    "city": "Regina",
    "state": "SK",
    "country": "Canada",
    "zip": "S4N",
    "phone": "(306) 791- 7900",
    "website": "https://www.sasksciencecentre.com/",
    "admittancePolicy": "Two adults and up to four children under 18 in the same household. Free admission limited to general exhibit areas; does not include traveling exhibitions or theatre shows.",
    "proofOfResidenceRequired": false,
    "latitude": 50.4329054,
    "longitude": -104.5943312,
    "discountType": "free",
    "specialNotes": ""
  },
  {
    "id": "science-north",
    "name": "Science North",
    "address": "100 Ramsey Lake Rd",
    "city": "Sudbury",
    "state": "ON",
    "country": "Canada",
    "zip": "P3E 5S9",
    "phone": "(705) 522- 3701",
    "website": "https://www.sciencenorth.ca/",
    "admittancePolicy": "One or two adults and their children under 18 living at same address. Admission is to the science center only.",
    "proofOfResidenceRequired": true,
    "latitude": 46.4708749,
    "longitude": -80.9961867,
    "discountType": "free",
    "specialNotes": ""
  },
  {
    "id": "science-world",
    "name": "Science World",
    "address": "1455 Quebec St",
    "city": "Vancouver",
    "state": "BC",
    "country": "Canada",
    "zip": "V6A",
    "phone": "(604) 443- 7440",
    "website": "https://www.scienceworld.ca/",
    "admittancePolicy": "Admits up to two adults and their children (maximum four), 3 to 18, named on the membership card(s). Some restrictions apply. Proof of Residence Required. General admission only. Does not include special events, discounts, or fee-based experiences.",
    "proofOfResidenceRequired": true,
    "latitude": 49.2790908,
    "longitude": -123.102156,
    "discountType": "free",
    "specialNotes": ""
  },
  {
    "id": "telus-spark",
    "name": "TELUS Spark",
    "address": "220 St. George's Dr NE",
    "city": "Calgary",
    "state": "AB",
    "country": "Canada",
    "zip": "T2E 5T2",
    "phone": "(403) 817- 6800",
    "website": "https://www.sparkscience.ca/",
    "admittancePolicy": "General admission only for up to two adults and four children living in the same household. Does not include parking, discounts, special events, and select feature exhibitions.",
    "proofOfResidenceRequired": true,
    "latitude": 51.0538728,
    "longitude": -114.024439,
    "discountType": "free",
    "specialNotes": ""
  },
  {
    "id": "telus-world-of-science-edmonton",
    "name": "TELUS World of Science – Edmonton",
    "address": "11211 142 St NW",
    "city": "Edmonton",
    "state": "AB",
    "country": "Canada",
    "zip": "T5M 4A1",
    "phone": "(780) 451- 3344",
    "website": "https://telusworldofscienceedmonton.ca/",
    "admittancePolicy": "Science center general admission only. Additional fees for special exhibits apply. Does not include special events, programing, or IMAX admission.",
    "proofOfResidenceRequired": true,
    "latitude": 53.5612204,
    "longitude": -113.5644198,
    "discountType": "free",
    "specialNotes": ""
  },
  {
    "id": "maloka-centro-interactivo-de-ciencia-y-tecnologia",
    "name": "Maloka - Centro Interactivo de Ciencia y Tecnologia",
    "address": "Carrera 68 D # 24A - 51",
    "city": "Ciudad Salitre",
    "state": "",
    "country": "Colombia",
    "zip": "Bogotá 110931",
    "phone": "+57 14272707",
    "website": "https://maloka.org/",
    "admittancePolicy": "Two adults and two children.",
    "proofOfResidenceRequired": false,
    "latitude": 4.6631,
    "longitude": -74.1161,
    "discountType": "free",
    "specialNotes": ""
  },
  {
    "id": "bloomfield-science-museum-jerusalem",
    "name": "Bloomfield Science Museum Jerusalem",
    "address": "The Hebrew University",
    "city": "University Boulevard",
    "state": "",
    "country": "Israel",
    "zip": "",
    "phone": "+972 26544888",
    "website": "https://mada.org.il/",
    "admittancePolicy": "One adult, spouse, and children.",
    "proofOfResidenceRequired": false,
    "latitude": 31.7783762,
    "longitude": 35.2001736,
    "discountType": "free",
    "specialNotes": ""
  },
  {
    "id": "carasso-science-park",
    "name": "Carasso Science Park",
    "address": "79 Haatzmaut St",
    "city": "Beer Sheva 84100",
    "state": "",
    "country": "Israel",
    "zip": "",
    "phone": "+972 86252600",
    "website": "https://www.sci-park.co.il",
    "admittancePolicy": "Two adults and three children. Free admission for children under 5.",
    "proofOfResidenceRequired": true,
    "latitude": 31.2418329,
    "longitude": 34.7859019,
    "discountType": "free",
    "specialNotes": ""
  },
  {
    "id": "science-technology-space-at-the-technion",
    "name": "Science, Technology, & Space at the Technion",
    "address": "Ta Do'ar 44927",
    "city": "Haifa 3144801",
    "state": "",
    "country": "Israel",
    "zip": "",
    "phone": "+972 48614444",
    "website": "https://www.madatech.org.il/en",
    "admittancePolicy": "Parents and three children.",
    "proofOfResidenceRequired": false,
    "latitude": 32.7767,
    "longitude": 35.0231,
    "discountType": "free",
    "specialNotes": ""
  },
  {
    "id": "the-davidson-institute-of-science-education",
    "name": "The Davidson Institute of Science Education",
    "address": "Weizmann Institute of Science",
    "city": "Rehovot 76100",
    "state": "",
    "country": "Israel",
    "zip": "",
    "phone": "+972 89343942",
    "website": "https://davidson.weizmann.ac.il/",
    "admittancePolicy": "Nuclear family (two adults and children).",
    "proofOfResidenceRequired": false,
    "latitude": 31.9078499,
    "longitude": 34.8133409,
    "discountType": "free",
    "specialNotes": ""
  },
  {
    "id": "national-science-centre-malaysia",
    "name": "National Science Centre, Malaysia",
    "address": "Pesiaran Bukit Kiara",
    "city": "Kuala Lumpur 50662",
    "state": "",
    "country": "Malaysia",
    "zip": "",
    "phone": "+60 320923400",
    "website": "https://www.psn.gov.my/",
    "admittancePolicy": "Two adults and two children under 18. Valid for general exhibit area; does not include special exhibitions, rides, and shows.",
    "proofOfResidenceRequired": false,
    "latitude": 3.1569,
    "longitude": 101.6664,
    "discountType": "free",
    "specialNotes": ""
  },
  {
    "id": "petrosains-the-discovery-centre",
    "name": "Petrosains, The Discovery Centre",
    "address": "Petronas Twin Towers",
    "city": "Level 4",
    "state": "",
    "country": "Malaysia",
    "zip": "Suria KLCC",
    "phone": "+60 323318787",
    "website": "https://petrosains.com.my/",
    "admittancePolicy": "Two adults and two children 17 and under. Valid only for general exhibit area; does not include paid exhibits, rides, or Theatre Ungku Omar.",
    "proofOfResidenceRequired": false,
    "latitude": 3.158,
    "longitude": 101.7117,
    "discountType": "free",
    "specialNotes": ""
  },
  {
    "id": "mide-museo-interactivo-de-economia",
    "name": "MIDE, Museo Interactivo de Economia",
    "address": "Tacuba 17",
    "city": "Centro Histórico",
    "state": "",
    "country": "Mexico",
    "zip": "Del. Cuauhtémoc",
    "phone": "+52 5551304600",
    "website": "https://www.mide.org.mx/",
    "admittancePolicy": "Two adults and two children under 16. Benefits do not extend to special events.",
    "proofOfResidenceRequired": false,
    "latitude": 19.4349,
    "longitude": -99.1419,
    "discountType": "free",
    "specialNotes": ""
  },
  {
    "id": "explora-centro-de-ciencias-y-arte",
    "name": "EXPLORA, Centro de Ciencias y Arte",
    "address": "Via Ricardo J. Alfaro",
    "city": "Frente a la Urb. Condado del Rey",
    "state": "",
    "country": "Panama",
    "zip": "Panama City",
    "phone": "+507 2303066",
    "website": "https://www.explorapanama.org/",
    "admittancePolicy": "One adult and one child under 12.",
    "proofOfResidenceRequired": true,
    "latitude": 9.0111,
    "longitude": -79.4989,
    "discountType": "free",
    "specialNotes": ""
  },
  {
    "id": "the-mind-museum",
    "name": "The Mind Museum",
    "address": "JY Campos Park",
    "city": "3rd Ave",
    "state": "",
    "country": "Philippines",
    "zip": "Taguig 1634 Metro Manila",
    "phone": "+632 7796- 0189",
    "website": "https://www.themindmuseum.org/",
    "admittancePolicy": "Maximum of five free admissions.",
    "proofOfResidenceRequired": false,
    "latitude": 14.5520716,
    "longitude": 121.0455361,
    "discountType": "free",
    "specialNotes": ""
  },
  {
    "id": "science-centre-singapore",
    "name": "Science Centre Singapore",
    "address": "15 Science Centre Road",
    "city": "Singapore 609081",
    "state": "",
    "country": "Singapore",
    "zip": "",
    "phone": "+65 64252500",
    "website": "https://www.science.edu.sg/",
    "admittancePolicy": "Maximum of five free admissions. Valid only for entry into the center, not the Omni-theater.",
    "proofOfResidenceRequired": false,
    "latitude": 1.3328377,
    "longitude": 103.736019,
    "discountType": "free",
    "specialNotes": ""
  },
  {
    "id": "gwangju-national-science-museum",
    "name": "Gwangju National Science Museum",
    "address": "Gwangju Metropolitan City",
    "city": "Buk-gu",
    "state": "",
    "country": "South Korea",
    "zip": "Cheomdan Gwagi-ro 235 (Oryong-dong)",
    "phone": "+82 62- 960 - 6210 / +82 10- 5080 - 3220",
    "website": "https://www.sciencecenter.or.kr/",
    "admittancePolicy": "Free admission--call before visit to confirm.",
    "proofOfResidenceRequired": false,
    "latitude": 35.227761,
    "longitude": 126.850404,
    "discountType": "free",
    "specialNotes": ""
  },
  {
    "id": "science-museum-of-kyiv-junior-academy-of-sciences-of-ukraine",
    "name": "Science Museum of Kyiv - Junior Academy of Sciences of Ukraine",
    "address": "Akademika Hlushkova Prospekt",
    "city": "1",
    "state": "",
    "country": "Ukraine",
    "zip": "Kyiv",
    "phone": "+380 982490069",
    "website": "https://sciencemuseum.com.ua",
    "admittancePolicy": "Choice of one-day visit admission or one-day visit + educational program admission.",
    "proofOfResidenceRequired": false,
    "latitude": 50.3768728,
    "longitude": 30.4749722,
    "discountType": "free",
    "specialNotes": ""
  },
  {
    "id": "international-centre-for-life",
    "name": "International Centre for Life",
    "address": "Times Square",
    "city": "Scotswood Road",
    "state": "",
    "country": "United Kingdom",
    "zip": "Newcastle Upon Tyne",
    "phone": "+44 1912438210",
    "website": "https://www.life.org.uk/",
    "admittancePolicy": "Individual membership provides free admission for one person. Family membership provides free admission for two adults and two children, or one adult and three children. All additional people are charged regular admission.",
    "proofOfResidenceRequired": false,
    "latitude": 54.9812,
    "longitude": -1.6113,
    "discountType": "free",
    "specialNotes": ""
  }
]