[
  {
    "id": "abilene-zoological-gardens",
    "name": "Abilene Zoological Gardens",
    "address": "2070 Zoo Ln",
    "city": "Abilene",
    "state": "TX",
    "country": "USA",
    "zip": "79602-1996",
    "phone": "(325)676-6085",
    "website": "http://www.abilenezoo.org",
    "admittancePolicy": "Free admission with reciprocal membership",
    "proofOfResidenceRequired": false,
    "latitude": 32.435474,
    "longitude": -99.689835,
    "discountType": "free",
    "specialNotes": "Contact: Membership - 325-676-4927",
    "type": "aza"
  },
  {
    "id": "adventure-aquarium",
    "name": "Adventure Aquarium",
    "address": "1 Riverside Dr",
    "city": "Camden",
    "state": "NJ",
    "country": "USA",
    "zip": "08103-1060",
    "phone": "(856)365-3300",
    "website": "http://www.adventureaquarium.com",
    "admittancePolicy": "50% discount on admission with reciprocal membership",
    "proofOfResidenceRequired": false,
    "latitude": 39.943314,
    "longitude": -75.130188,
    "discountType": "50-percent",
    "specialNotes": "Email: info@adventureaquarium.com; Contact: Membership - 856-365-3300 x238",
    "type": "aza"
  },
  {
    "id": "akron-zoological-park",
    "name": "Akron Zoological Park",
    "address": "500 Edgewood Ave",
    "city": "Akron",
    "state": "OH",
    "country": "USA",
    "zip": "44307-2199",
    "phone": "(330)375-2550",
    "website": "http://www.akronzoo.org",
    "admittancePolicy": "Free admission with reciprocal membership",
    "proofOfResidenceRequired": false,
    "latitude": 41.082939,
    "longitude": -81.539384,
    "discountType": "free",
    "specialNotes": "Email: info@akronzoo.org; Contact: Guest Services - 330-375-2550",
    "type": "aza"
  },
  {
    "id": "alaska-sealife-center",
    "name": "Alaska SeaLife Center",
    "address": "PO BOX 1329",
    "city": "Seward",
    "state": "AK",
    "country": "USA",
    "zip": "99664-1329",
    "phone": "(907)224-6300",
    "website": "http://www.alaskasealife.org",
    "admittancePolicy": "50% discount on admission with reciprocal membership",
    "proofOfResidenceRequired": false,
    "latitude": 0,
    "longitude": 0,
    "discountType": "50-percent",
    "specialNotes": "Email: visitaslc@alaskasealife.org; Contact: Shannon Wolf - 907-224-6355",
    "type": "aza"
  },
  {
    "id": "assiniboine-park-zoo",
    "name": "Assiniboine Park Zoo",
    "address": "2595 Roblin Boulevard",
    "city": "Winnipeg",
    "state": "MB",
    "country": "Canada",
    "zip": "R3P 2N7",
    "phone": "",
    "website": "",
    "admittancePolicy": "50% discount on admission with reciprocal membership",
    "proofOfResidenceRequired": false,
    "latitude": 49.845,
    "longitude": -97.2276,
    "discountType": "50-percent",
    "specialNotes": "Contact: Leah McDonald - 204-927-6062",
    "type": "aza"
  },
  {
    "id": "audubon-aquarium-insectarium",
    "name": "Audubon Aquarium & Insectarium",
    "address": "1 Canal St",
    "city": "New Orleans",
    "state": "LA",
    "country": "USA",
    "zip": "70130-1175",
    "phone": "(504)565-3033",
    "website": "https://audubonnatureinstitute.org/",
    "admittancePolicy": "50% discount on admission with reciprocal membership",
    "proofOfResidenceRequired": false,
    "latitude": 29.950209,
    "longitude": -90.064262,
    "discountType": "50-percent",
    "specialNotes": "Email: air@auduboninstitute.org; Contact: Membership Department - 504-212-5278",
    "type": "aza"
  },
  {
    "id": "audubon-zoo",
    "name": "Audubon Zoo",
    "address": "6500 Magazine St",
    "city": "New Orleans",
    "state": "LA",
    "country": "USA",
    "zip": "70118-4848",
    "phone": "(504)861-2537",
    "website": "http://www.audubonnatureinstitute.org",
    "admittancePolicy": "50% discount on admission with reciprocal membership",
    "proofOfResidenceRequired": false,
    "latitude": 29.924368,
    "longitude": -90.12719,
    "discountType": "50-percent",
    "specialNotes": "Email: air@auduboninstitute.org; Contact: Membership Department - 504-212-5278",
    "type": "aza"
  },
  {
    "id": "bailey-matthews-national-shell-museum-aquarium",
    "name": "Bailey-Matthews National Shell Museum & Aquarium",
    "address": "3075 Sanibel Captiva RD",
    "city": "Sanibel",
    "state": "FL",
    "country": "USA",
    "zip": "33957-3111",
    "phone": "",
    "website": "https://www.shellmuseum.org/",
    "admittancePolicy": "50% discount on admission with reciprocal membership",
    "proofOfResidenceRequired": false,
    "latitude": 26.438351,
    "longitude": -82.091025,
    "discountType": "50-percent",
    "specialNotes": "Contact: Paige Nehls - 239-347-5114",
    "type": "aza"
  },
  {
    "id": "binder-park-zoo",
    "name": "Binder Park Zoo",
    "address": "7400 Division Dr",
    "city": "Battle Creek",
    "state": "MI",
    "country": "USA",
    "zip": "49014-9500",
    "phone": "(269)979-1351 (130)",
    "website": "http://www.binderparkzoo.org",
    "admittancePolicy": "Free admission with reciprocal membership",
    "proofOfResidenceRequired": false,
    "latitude": 42.246536,
    "longitude": -85.155457,
    "discountType": "free",
    "specialNotes": "Email: info@binderparkzoo.org; Contact: Pam Swaim - 269-966-3700 x140",
    "type": "aza"
  },
  {
    "id": "birmingham-zoo",
    "name": "Birmingham Zoo",
    "address": "2630 Cahaba Rd",
    "city": "Mountain Brk",
    "state": "AL",
    "country": "USA",
    "zip": "35223-1106",
    "phone": "(205)879-0409",
    "website": "http://www.birminghamzoo.com",
    "admittancePolicy": "50% discount on admission with reciprocal membership",
    "proofOfResidenceRequired": false,
    "latitude": 33.484619,
    "longitude": -86.774034,
    "discountType": "50-percent",
    "specialNotes": "Contact: Patty Pendleton - 205-879-0409 x232",
    "type": "aza"
  },
  {
    "id": "brandywine-zoo",
    "name": "Brandywine Zoo",
    "address": "1001 N Park Dr",
    "city": "Wilmington",
    "state": "DE",
    "country": "USA",
    "zip": "19802-3801",
    "phone": "(302)571-7747",
    "website": "http://www.brandywinezoo.org",
    "admittancePolicy": "50% discount on admission with reciprocal membership",
    "proofOfResidenceRequired": false,
    "latitude": 39.752975,
    "longitude": -75.547844,
    "discountType": "50-percent",
    "specialNotes": "Contact: Mark Shafer - 302-407-4413",
    "type": "aza"
  },
  {
    "id": "brevard-zoo",
    "name": "Brevard Zoo",
    "address": "8225 N Wickham Rd",
    "city": "Melbourne",
    "state": "FL",
    "country": "USA",
    "zip": "32940-7924",
    "phone": "(321)254-9453",
    "website": "http://www.brevardzoo.org",
    "admittancePolicy": "50% discount on admission with reciprocal membership",
    "proofOfResidenceRequired": false,
    "latitude": 28.230318,
    "longitude": -80.714712,
    "discountType": "50-percent",
    "specialNotes": "Email: info@brevardzoo.org; Contact: Cheri L. Purnell - 321-254-9453 x225",
    "type": "aza"
  },
  {
    "id": "bronx-zoo",
    "name": "Bronx Zoo",
    "address": "2300 Southern Blvd",
    "city": "Bronx",
    "state": "NY",
    "country": "USA",
    "zip": "10460-1090",
    "phone": "(718)220-5100",
    "website": "http://www.bronxzoo.com",
    "admittancePolicy": "50% discount on admission with reciprocal membership",
    "proofOfResidenceRequired": false,
    "latitude": 40.853348,
    "longitude": -73.881668,
    "discountType": "50-percent",
    "specialNotes": "Email: guestrelations@wcs.org; Contact: Membership - 718-220-5188",
    "type": "aza"
  },
  {
    "id": "buffalo-zoo",
    "name": "Buffalo Zoo",
    "address": "300 Parkside Ave",
    "city": "Buffalo",
    "state": "NY",
    "country": "USA",
    "zip": "14214-1963",
    "phone": "(716)837-3900",
    "website": "http://www.buffalozoo.org",
    "admittancePolicy": "50% discount on admission with reciprocal membership",
    "proofOfResidenceRequired": false,
    "latitude": 42.939579,
    "longitude": -78.84079,
    "discountType": "50-percent",
    "specialNotes": "Email: buffalozoo@buffalozoo.org; Contact: Membership - 716-995-6133",
    "type": "aza"
  },
  {
    "id": "butterfly-pavilion",
    "name": "Butterfly Pavilion",
    "address": "6252 W 104Th Ave",
    "city": "Westminster",
    "state": "CO",
    "country": "USA",
    "zip": "80020-4107",
    "phone": "(303)469-5441",
    "website": "http://www.butterflies.org",
    "admittancePolicy": "50% discount on admission with reciprocal membership",
    "proofOfResidenceRequired": false,
    "latitude": 39.886608,
    "longitude": -105.064341,
    "discountType": "50-percent",
    "specialNotes": "Email: visitorservices@butterflies.org; Contact: Membership Department - 720-531-9364",
    "type": "aza"
  },
  {
    "id": "cabrillo-marine-aquarium",
    "name": "Cabrillo Marine Aquarium",
    "address": "3720 Stephen M White Dr",
    "city": "San Pedro",
    "state": "CA",
    "country": "USA",
    "zip": "90731-7012",
    "phone": "(310)548-7562",
    "website": "http://www.cabrillomarineaquarium.org",
    "admittancePolicy": "Free admission with reciprocal membership",
    "proofOfResidenceRequired": false,
    "latitude": 33.710556,
    "longitude": -118.286049,
    "discountType": "free",
    "specialNotes": "Contact: Membership Department - 310-548-7546",
    "type": "aza"
  },
  {
    "id": "caldwell-zoo",
    "name": "Caldwell Zoo",
    "address": "2203 Martin Luther King Blvd",
    "city": "Tyler",
    "state": "TX",
    "country": "USA",
    "zip": "75702",
    "phone": "(903)593-0121",
    "website": "http://www.caldwellzoo.org",
    "admittancePolicy": "50% discount on admission with reciprocal membership",
    "proofOfResidenceRequired": false,
    "latitude": 32.369925,
    "longitude": -95.325564,
    "discountType": "50-percent",
    "specialNotes": "Email: info@caldwellzoo.org; Contact: Admissions - 903-593-0121 x0",
    "type": "aza"
  },
  {
    "id": "cameron-park-zoo",
    "name": "Cameron Park Zoo",
    "address": "1701 N 4Th St",
    "city": "Waco",
    "state": "TX",
    "country": "USA",
    "zip": "76707-2463",
    "phone": "(254)750-8400",
    "website": "http://www.cameronparkzoo.com",
    "admittancePolicy": "50% discount on admission with reciprocal membership",
    "proofOfResidenceRequired": false,
    "latitude": 31.568638,
    "longitude": -97.146019,
    "discountType": "50-percent",
    "specialNotes": "Email: zoo@wacotx.gov; Contact: Rosie Mena - 254-750-7007",
    "type": "aza"
  },
  {
    "id": "cape-may-county-park-zoo",
    "name": "Cape May County Park Zoo",
    "address": "707 Route 9 N",
    "city": "Cape May Court House",
    "state": "NJ",
    "country": "USA",
    "zip": "08210-1640",
    "phone": "(609)465-5271",
    "website": "http://www.cmczoo.com",
    "admittancePolicy": "Free to public (discounts may apply in gift shop)",
    "proofOfResidenceRequired": false,
    "latitude": 39.12175,
    "longitude": -74.834427,
    "discountType": "free-public",
    "specialNotes": "Email: info@cmczoo.com; Contact: Lori Shimp - 609-465-5271 x109",
    "type": "aza"
  },
  {
    "id": "central-coast-zoo",
    "name": "Central Coast Zoo",
    "address": "9100 Morro Road (Highway 41)",
    "city": "Atascadero",
    "state": "CA",
    "country": "USA",
    "zip": "93422",
    "phone": "(805)461-5080",
    "website": "http://www.charlespaddockzoo.org/",
    "admittancePolicy": "50% discount on admission with reciprocal membership",
    "proofOfResidenceRequired": false,
    "latitude": 35.458695,
    "longitude": -120.686751,
    "discountType": "50-percent",
    "specialNotes": "Email: zoo@atascadero.org; Contact: Guest Relations - 805-461-5080",
    "type": "aza"
  },
  {
    "id": "central-florida-zoo-botanical-gardens",
    "name": "Central Florida Zoo & Botanical Gardens",
    "address": "3755 W Seminole Blvd",
    "city": "Sanford",
    "state": "FL",
    "country": "USA",
    "zip": "32771-9641",
    "phone": "(407)323-4450",
    "website": "http://www.centralfloridazoo.org",
    "admittancePolicy": "50% discount on admission with reciprocal membership",
    "proofOfResidenceRequired": false,
    "latitude": 28.830627,
    "longitude": -81.315943,
    "discountType": "50-percent",
    "specialNotes": "Email: information@centralfloridazoo.org; Contact: Membership Services - information@centralfloridazoo.org",
    "type": "aza"
  },
  {
    "id": "central-park-zoo",
    "name": "Central Park Zoo",
    "address": "830 5Th Ave",
    "city": "New York",
    "state": "NY",
    "country": "USA",
    "zip": "10065-7001",
    "phone": "(212)439-6500",
    "website": "http://centralparkzoo.com/",
    "admittancePolicy": "50% discount on admission with reciprocal membership",
    "proofOfResidenceRequired": false,
    "latitude": 40.767395,
    "longitude": -73.970726,
    "discountType": "50-percent",
    "specialNotes": "Email: cpzinfo@wcs.org; Contact: Membership - 212-439-6583",
    "type": "aza"
  },
  {
    "id": "chattanooga-zoo-at-warner-park",
    "name": "Chattanooga Zoo at Warner Park",
    "address": "301 N Holtzclaw Ave",
    "city": "Chattanooga",
    "state": "TN",
    "country": "USA",
    "zip": "37404-2306",
    "phone": "(423)697-1322",
    "website": "http://www.chattzoo.org",
    "admittancePolicy": "Free admission with reciprocal membership",
    "proofOfResidenceRequired": false,
    "latitude": 35.027912,
    "longitude": -85.273659,
    "discountType": "free",
    "specialNotes": "Email: info@chattzoo.org; Contact: Membership Manager - 425-697-1322",
    "type": "aza"
  },
  {
    "id": "cincinnati-zoo-botanical-garden",
    "name": "Cincinnati Zoo & Botanical Garden",
    "address": "3400 Vine St",
    "city": "Cincinnati",
    "state": "OH",
    "country": "USA",
    "zip": "45220-1333",
    "phone": "(513)281-4700",
    "website": "http://www.cincinnatizoo.org/",
    "admittancePolicy": "50% discount on admission with reciprocal membership",
    "proofOfResidenceRequired": false,
    "latitude": 39.142406,
    "longitude": -84.509331,
    "discountType": "50-percent",
    "specialNotes": "Email: info@cincinnatizoo.org; Contact: Member Services - 513-281-4701",
    "type": "aza"
  },
  {
    "id": "cleveland-metroparks-zoo",
    "name": "Cleveland Metroparks Zoo",
    "address": "3900 Wildlife Way",
    "city": "Cleveland",
    "state": "OH",
    "country": "USA",
    "zip": "44109-3132",
    "phone": "(216)661-6500",
    "website": "www.clevelandmetroparks.com/zoo",
    "admittancePolicy": "50% discount on admission with reciprocal membership",
    "proofOfResidenceRequired": false,
    "latitude": 41.442891,
    "longitude": -81.717191,
    "discountType": "50-percent",
    "specialNotes": "Email: zooinfo@clevelandmetroparks.com; Contact: Guest Services - 216-635-3327",
    "type": "aza"
  },
  {
    "id": "columbus-zoo-and-aquarium",
    "name": "Columbus Zoo and Aquarium",
    "address": "4850 Powell Rd",
    "city": "Powell",
    "state": "OH",
    "country": "USA",
    "zip": "43065-7288",
    "phone": "(800)666-5397",
    "website": "http://www.columbuszoo.org/",
    "admittancePolicy": "50% discount on admission with reciprocal membership",
    "proofOfResidenceRequired": false,
    "latitude": 40.17754,
    "longitude": -83.094185,
    "discountType": "50-percent",
    "specialNotes": "Email: info@columbuszoo.org; Contact: Membership - 614-724-3414",
    "type": "aza"
  },
  {
    "id": "connecticut-s-beardsley-zoo",
    "name": "Connecticut's Beardsley Zoo",
    "address": "1875 Noble Ave",
    "city": "Bridgeport",
    "state": "CT",
    "country": "USA",
    "zip": "06610-1600",
    "phone": "(203)394-6565",
    "website": "http://www.beardsleyzoo.org",
    "admittancePolicy": "50% discount on admission with reciprocal membership",
    "proofOfResidenceRequired": false,
    "latitude": 41.20731,
    "longitude": -73.183505,
    "discountType": "50-percent",
    "specialNotes": "Contact: Astrid Stephenson - 203-394-6565 x149",
    "type": "aza"
  },
  {
    "id": "cosley-zoo",
    "name": "Cosley Zoo",
    "address": "1356 N Gary Ave",
    "city": "Wheaton",
    "state": "IL",
    "country": "USA",
    "zip": "60187-3425",
    "phone": "(630)665-5534",
    "website": "http://www.cosleyzoo.org",
    "admittancePolicy": "Free admission with reciprocal membership",
    "proofOfResidenceRequired": false,
    "latitude": 41.877843,
    "longitude": -88.119579,
    "discountType": "free",
    "specialNotes": "Email: cosleyzoo@wheatonparks.org; Contact: Sarah Tulicki - 630-510-5036",
    "type": "aza"
  },
  {
    "id": "curiodyssey",
    "name": "CuriOdyssey",
    "address": "1651 Coyote Point Dr",
    "city": "San Mateo",
    "state": "CA",
    "country": "USA",
    "zip": "94401-1097",
    "phone": "(650)342-7755",
    "website": "http://www.curiodyssey.org",
    "admittancePolicy": "50% discount on admission with reciprocal membership",
    "proofOfResidenceRequired": false,
    "latitude": 37.586261,
    "longitude": -122.326313,
    "discountType": "50-percent",
    "specialNotes": "Email: info@curiodyssey.org; Contact: Membership Dept. - 650-342-7755",
    "type": "aza"
  },
  {
    "id": "dakota-zoo",
    "name": "Dakota Zoo",
    "address": "602 Riverside Park Rd",
    "city": "Bismarck",
    "state": "ND",
    "country": "USA",
    "zip": "58504-5308",
    "phone": "(701)223-7543",
    "website": "http://www.dakotazoo.org",
    "admittancePolicy": "Free admission with reciprocal membership",
    "proofOfResidenceRequired": false,
    "latitude": 46.798649,
    "longitude": -100.802757,
    "discountType": "free",
    "specialNotes": "Email: director@dakotazoo.org; Contact: Terry Lincoln - 701-223-7543",
    "type": "aza"
  },
  {
    "id": "dallas-zoo",
    "name": "Dallas Zoo",
    "address": "650 S R L Thornton Fwy",
    "city": "Dallas",
    "state": "TX",
    "country": "USA",
    "zip": "75203-3013",
    "phone": "(469)554-7500",
    "website": "http://www.dallaszoo.com",
    "admittancePolicy": "50% discount on admission with reciprocal membership",
    "proofOfResidenceRequired": false,
    "latitude": 32.744675,
    "longitude": -96.813034,
    "discountType": "50-percent",
    "specialNotes": "Email: info@dallaszoo.com; Contact: Karen Miles - 469-554-7431",
    "type": "aza"
  },
  {
    "id": "detroit-zoo",
    "name": "Detroit Zoo",
    "address": "8450 W 10 Mile Rd",
    "city": "Royal Oak",
    "state": "MI",
    "country": "USA",
    "zip": "48067-3001",
    "phone": "(248)541-5717",
    "website": "http://www.detroitzoo.org",
    "admittancePolicy": "50% discount on admission with reciprocal membership",
    "proofOfResidenceRequired": false,
    "latitude": 42.474104,
    "longitude": -83.157622,
    "discountType": "50-percent",
    "specialNotes": "Contact: Membership - 248-336-5490",
    "type": "aza"
  },
  {
    "id": "dickerson-park-zoo",
    "name": "Dickerson Park Zoo",
    "address": "3043 N Fort Ave",
    "city": "Springfield",
    "state": "MO",
    "country": "USA",
    "zip": "65803-1079",
    "phone": "(417)833-1570",
    "website": "http://www.dickersonparkzoo.org",
    "admittancePolicy": "Free admission with reciprocal membership",
    "proofOfResidenceRequired": false,
    "latitude": 37.283188,
    "longitude": -93.289818,
    "discountType": "free",
    "specialNotes": "Email: info@dickersonparkzoo.org; Contact: Kristin Ferguson - 417-833-1570 x146",
    "type": "aza"
  },
  {
    "id": "fort-wayne-zoo",
    "name": "Fort Wayne Zoo",
    "address": "3411 Sherman Blvd",
    "city": "Fort Wayne",
    "state": "IN",
    "country": "USA",
    "zip": "46808-1594",
    "phone": "(260)427-6800",
    "website": "http://www.kidszoo.org",
    "admittancePolicy": "50% discount on admission with reciprocal membership",
    "proofOfResidenceRequired": false,
    "latitude": 41.104785,
    "longitude": -85.15316,
    "discountType": "50-percent",
    "specialNotes": "Email: info@kidszoo.org; Contact: Membership - 260-427-6808",
    "type": "aza"
  },
  {
    "id": "fort-worth-zoo",
    "name": "Fort Worth Zoo",
    "address": "1989 Colonial Pkwy",
    "city": "Fort Worth",
    "state": "TX",
    "country": "USA",
    "zip": "76110-6640",
    "phone": "(817)759-7500",
    "website": "http://www.fortworthzoo.org",
    "admittancePolicy": "50% discount on admission with reciprocal membership",
    "proofOfResidenceRequired": false,
    "latitude": 32.722649,
    "longitude": -97.360077,
    "discountType": "50-percent",
    "specialNotes": "Contact: Member Services - 817-759-7337",
    "type": "aza"
  },
  {
    "id": "franklin-park-zoo",
    "name": "Franklin Park Zoo",
    "address": "One Franklin Park Road",
    "city": "Boston",
    "state": "MA",
    "country": "USA",
    "zip": "02121-3255",
    "phone": "(617)989-2000",
    "website": "http://www.zoonewengland.com",
    "admittancePolicy": "50% discount on admission with reciprocal membership",
    "proofOfResidenceRequired": false,
    "latitude": 42.302671,
    "longitude": -71.086641,
    "discountType": "50-percent",
    "specialNotes": "Email: info@zoonewengland.org; Contact: Membership - 617-541-5466",
    "type": "aza"
  },
  {
    "id": "fresno-chaffee-zoo",
    "name": "Fresno Chaffee Zoo",
    "address": "894 W Belmont Ave",
    "city": "Fresno",
    "state": "CA",
    "country": "USA",
    "zip": "93728-2891",
    "phone": "(559)498-5910",
    "website": "http://www.fresnochaffeezoo.org",
    "admittancePolicy": "50% discount on admission with reciprocal membership",
    "proofOfResidenceRequired": false,
    "latitude": 36.750265,
    "longitude": -119.82497,
    "discountType": "50-percent",
    "specialNotes": "Email: info@fresnochaffeezoo.org; Contact: Membership Department - 559-498-5921",
    "type": "aza"
  },
  {
    "id": "gladys-porter-zoo",
    "name": "Gladys Porter Zoo",
    "address": "500 E Ringgold St",
    "city": "Brownsville",
    "state": "TX",
    "country": "USA",
    "zip": "78520-7998",
    "phone": "(956)546-7187",
    "website": "http://www.gpz.org",
    "admittancePolicy": "Free admission with reciprocal membership",
    "proofOfResidenceRequired": false,
    "latitude": 25.914833,
    "longitude": -97.49659,
    "discountType": "free",
    "specialNotes": "Email: admin@gpz.org; Contact: Abby Vazquez - 956-546-7187 x343/344",
    "type": "aza"
  },
  {
    "id": "great-plains-zoo",
    "name": "Great Plains Zoo",
    "address": "805 S Kiwanis Ave",
    "city": "Sioux Falls",
    "state": "SD",
    "country": "USA",
    "zip": "57104-3798",
    "phone": "(605)367-7003",
    "website": "http://www.greatzoo.org",
    "admittancePolicy": "50% discount on admission with reciprocal membership",
    "proofOfResidenceRequired": false,
    "latitude": 43.539185,
    "longitude": -96.761185,
    "discountType": "50-percent",
    "specialNotes": "Email: info@gpzoo.org; Contact: Admissions Dept. - 605-376-7003 x113",
    "type": "aza"
  },
  {
    "id": "greenville-zoo",
    "name": "Greenville Zoo",
    "address": "150 Cleveland Park Dr",
    "city": "Greenville",
    "state": "SC",
    "country": "USA",
    "zip": "29601-3147",
    "phone": "(864)467-4300",
    "website": "http://www.greenvillezoo.com",
    "admittancePolicy": "50% discount on admission with reciprocal membership",
    "proofOfResidenceRequired": false,
    "latitude": 34.847364,
    "longitude": -82.38578,
    "discountType": "50-percent",
    "specialNotes": "Email: zooinfo@greenvillesc.gov; Contact: Olitsia Marshall - 864-467-4542",
    "type": "aza"
  },
  {
    "id": "happy-hollow-zoo",
    "name": "Happy Hollow Zoo",
    "address": "1300 Senter Rd",
    "city": "San Jose",
    "state": "CA",
    "country": "USA",
    "zip": "95112-2520",
    "phone": "(408)794-6431",
    "website": "http://www.hhpz.org",
    "admittancePolicy": "50% discount on admission with reciprocal membership",
    "proofOfResidenceRequired": false,
    "latitude": 37.325768,
    "longitude": -121.865623,
    "discountType": "50-percent",
    "specialNotes": "Email: HHGUESTSERVICES@sanjoseca.gov; Contact: Katrina Osorio - 408-794-6444",
    "type": "aza"
  },
  {
    "id": "henry-vilas-zoo",
    "name": "Henry Vilas Zoo",
    "address": "702 S Randall Ave",
    "city": "Madison",
    "state": "WI",
    "country": "USA",
    "zip": "53715-1600",
    "phone": "(608)266-4732",
    "website": "http://www.vilaszoo.org",
    "admittancePolicy": "Free to public (discounts may apply in gift shop)",
    "proofOfResidenceRequired": false,
    "latitude": 43.060896,
    "longitude": -89.408981,
    "discountType": "free-public",
    "specialNotes": "Email: zoo@countyofdane.com; Contact: Guest Services Department - 608-266-4732",
    "type": "aza"
  },
  {
    "id": "houston-aquarium-inc",
    "name": "Houston Aquarium, Inc.",
    "address": "410 Bagby St",
    "city": "Houston",
    "state": "TX",
    "country": "USA",
    "zip": "77002-1510",
    "phone": "(713)315-5000",
    "website": "http://www.downtownaquarium.com/",
    "admittancePolicy": "50% discount on admission with reciprocal membership",
    "proofOfResidenceRequired": false,
    "latitude": 29.764534,
    "longitude": -95.36664,
    "discountType": "50-percent",
    "specialNotes": "Email: aqdt@ldry.com; Contact: Member Services - 713-533-6535",
    "type": "aza"
  },
  {
    "id": "houston-zoo-inc",
    "name": "Houston Zoo, Inc.",
    "address": "6200 Hermann Park Dr",
    "city": "Houston",
    "state": "TX",
    "country": "USA",
    "zip": "77030-1710",
    "phone": "(713)533-6531",
    "website": "http://www.houstonzoo.org",
    "admittancePolicy": "50% discount on admission with reciprocal membership",
    "proofOfResidenceRequired": false,
    "latitude": 29.706787,
    "longitude": -95.401749,
    "discountType": "50-percent",
    "specialNotes": "Email: accounts.payable@houstonzoo.org; Contact: Member Services - 713-533-6535",
    "type": "aza"
  },
  {
    "id": "idaho-falls-zoo-at-tautphaus-park",
    "name": "Idaho Falls Zoo at Tautphaus Park",
    "address": "PO BOX 50220",
    "city": "Idaho Falls",
    "state": "ID",
    "country": "USA",
    "zip": "83405-0220",
    "phone": "(208)612-8552",
    "website": "http://www.idahofallszoo.org",
    "admittancePolicy": "Free admission with reciprocal membership",
    "proofOfResidenceRequired": false,
    "latitude": 0,
    "longitude": 0,
    "discountType": "free",
    "specialNotes": "Email: ifzoo@idahofallszoo.org; Contact: Laurie Gravatt - 208-612-8421",
    "type": "aza"
  },
  {
    "id": "indianapolis-zoological-society-inc",
    "name": "Indianapolis Zoological Society, Inc.",
    "address": "1200 W Washington St",
    "city": "Indianapolis",
    "state": "IN",
    "country": "USA",
    "zip": "46222-4552",
    "phone": "(317)630-2004",
    "website": "http://www.indyzoo.com",
    "admittancePolicy": "50% discount on admission with reciprocal membership",
    "proofOfResidenceRequired": false,
    "latitude": 39.767307,
    "longitude": -86.185553,
    "discountType": "50-percent",
    "specialNotes": "Email: tbaker@indyzoo.com; Contact: Member Services - 317-630-5215",
    "type": "aza"
  },
  {
    "id": "international-crane-foundation",
    "name": "International Crane Foundation",
    "address": "E11376 Shady Lane Rd",
    "city": "Baraboo",
    "state": "WI",
    "country": "USA",
    "zip": "53913-9445",
    "phone": "(608)356-9462",
    "website": "http://www.savingcranes.org",
    "admittancePolicy": "Free admission with reciprocal membership",
    "proofOfResidenceRequired": false,
    "latitude": 43.546844,
    "longitude": -89.758041,
    "discountType": "free",
    "specialNotes": "Email: info@savingcranes.org; Contact: Jennifer Fiene - 608-356-9462 x151",
    "type": "aza"
  },
  {
    "id": "jacksonville-zoo-and-botanical-gardens",
    "name": "Jacksonville Zoo and Botanical Gardens",
    "address": "370 Zoo Pkwy",
    "city": "Jacksonville",
    "state": "FL",
    "country": "USA",
    "zip": "32218-5799",
    "phone": "(904)757-4463",
    "website": "http://www.jacksonvillezoo.org/",
    "admittancePolicy": "50% discount on admission with reciprocal membership",
    "proofOfResidenceRequired": false,
    "latitude": 30.406613,
    "longitude": -81.644514,
    "discountType": "50-percent",
    "specialNotes": "Email: zooinformation@jacksonvillezoo.org; Contact: Shelia Campbell - campbells@jacksonvillezoo.org",
    "type": "aza"
  },
  {
    "id": "john-ball-zoo",
    "name": "John Ball Zoo",
    "address": "1300 Fulton St W",
    "city": "Grand Rapids",
    "state": "MI",
    "country": "USA",
    "zip": "49504-6100",
    "phone": "(616)336-4300",
    "website": "http://www.jbzoo.org",
    "admittancePolicy": "Free admission with reciprocal membership",
    "proofOfResidenceRequired": false,
    "latitude": 42.963863,
    "longitude": -85.699951,
    "discountType": "free",
    "specialNotes": "Email: info@jbzoo.org; Contact: Guest Services - 616-336-4300",
    "type": "aza"
  },
  {
    "id": "john-g-shedd-aquarium",
    "name": "John G. Shedd Aquarium",
    "address": "1200 S. DuSable Lake Shore Dr",
    "city": "Chicago",
    "state": "IL",
    "country": "USA",
    "zip": "60605-2490",
    "phone": "(312)939-2438",
    "website": "http://www.sheddaquarium.org",
    "admittancePolicy": "50% discount on admission with reciprocal membership",
    "proofOfResidenceRequired": false,
    "latitude": 0,
    "longitude": 0,
    "discountType": "50-percent",
    "specialNotes": "Email: contactus@sheddaquarium.org; Contact: Member Services - 312-692-3284",
    "type": "aza"
  },
  {
    "id": "kansas-city-zoo-aquarium",
    "name": "Kansas City Zoo & Aquarium",
    "address": "6800 Zoo Dr",
    "city": "Kansas City",
    "state": "MO",
    "country": "USA",
    "zip": "64132-1711",
    "phone": "(816)595-1234",
    "website": "http://www.kansascityzoo.org",
    "admittancePolicy": "50% discount on admission with reciprocal membership",
    "proofOfResidenceRequired": false,
    "latitude": 38.988293,
    "longitude": -94.542244,
    "discountType": "50-percent",
    "specialNotes": "Email: askthezoo@fotzkc.org; Contact: Member Services - 816-595-1234 x278",
    "type": "aza"
  },
  {
    "id": "lincoln-children-s-zoo",
    "name": "Lincoln Children's Zoo",
    "address": "1222 S 27th ST",
    "city": "Lincoln",
    "state": "NE",
    "country": "USA",
    "zip": "68502-1832",
    "phone": "(402)475-6741",
    "website": "http://www.lincolnzoo.org",
    "admittancePolicy": "Free admission with reciprocal membership",
    "proofOfResidenceRequired": false,
    "latitude": 40.785809,
    "longitude": -96.697998,
    "discountType": "free",
    "specialNotes": "Email: contact@lincolnzoo.org; Contact: Membership - 402-475-6741 x108",
    "type": "aza"
  },
  {
    "id": "lincoln-park-zoo",
    "name": "Lincoln Park Zoo",
    "address": "2001 N Clark St",
    "city": "Chicago",
    "state": "IL",
    "country": "USA",
    "zip": "60614-4757",
    "phone": "(312)742-2020",
    "website": "http://www.lpzoo.org",
    "admittancePolicy": "Free to public (discounts may apply in gift shop)",
    "proofOfResidenceRequired": false,
    "latitude": 41.918472,
    "longitude": -87.636116,
    "discountType": "free-public",
    "specialNotes": "Contact: Julia Burns - jburns@lpzoo.org",
    "type": "aza"
  },
  {
    "id": "little-rock-zoo",
    "name": "Little Rock Zoo",
    "address": "1 Zoo Dr",
    "city": "Little Rock",
    "state": "AR",
    "country": "USA",
    "zip": "72205-5401",
    "phone": "(501)666-2406",
    "website": "http://www.littlerockzoo.com",
    "admittancePolicy": "50% discount on admission with reciprocal membership",
    "proofOfResidenceRequired": false,
    "latitude": 34.750324,
    "longitude": -92.351204,
    "discountType": "50-percent",
    "specialNotes": "Email: saltrui@littlerock.gov; Contact: Kelli Enz - 501-371-4589",
    "type": "aza"
  },
  {
    "id": "los-angeles-zoo-and-botanical-gardens",
    "name": "Los Angeles Zoo and Botanical Gardens",
    "address": "5333 Zoo Dr",
    "city": "Los Angeles",
    "state": "CA",
    "country": "USA",
    "zip": "90027-1498",
    "phone": "(323)644-4200",
    "website": "http://www.lazoo.org",
    "admittancePolicy": "50% discount on admission with reciprocal membership",
    "proofOfResidenceRequired": false,
    "latitude": 34.149421,
    "longitude": -118.285098,
    "discountType": "50-percent",
    "specialNotes": "Email: lazoo.pr@lacity.org; Contact: Membership Dept. - 323-644-4747",
    "type": "aza"
  },
  {
    "id": "louisville-zoological-garden",
    "name": "Louisville Zoological Garden",
    "address": "1100 Trevilian Way",
    "city": "Louisville",
    "state": "KY",
    "country": "USA",
    "zip": "40213-1559",
    "phone": "(502)459-2181",
    "website": "http://www.louisvillezoo.org/",
    "admittancePolicy": "50% discount on admission with reciprocal membership",
    "proofOfResidenceRequired": false,
    "latitude": 38.206573,
    "longitude": -85.710663,
    "discountType": "50-percent",
    "specialNotes": "Email: zooreceptionist@louisvillezoo.gov; Contact: Membership - 502-459-2287",
    "type": "aza"
  },
  {
    "id": "maryland-zoo-in-baltimore",
    "name": "Maryland Zoo in Baltimore",
    "address": "1876 Mansion House Dr Druid Hill Park",
    "city": "Baltimore",
    "state": "MD",
    "country": "USA",
    "zip": "21217-4474",
    "phone": "(410)396-7102",
    "website": "http://www.marylandzoo.org",
    "admittancePolicy": "50% discount on admission with reciprocal membership",
    "proofOfResidenceRequired": false,
    "latitude": 39.308472,
    "longitude": -76.639153,
    "discountType": "50-percent",
    "specialNotes": "Contact: Sarah Witiak - 443-552-5313",
    "type": "aza"
  },
  {
    "id": "memphis-zoo",
    "name": "Memphis Zoo",
    "address": "2000 Prentiss Pl",
    "city": "Memphis",
    "state": "TN",
    "country": "USA",
    "zip": "38112-5033",
    "phone": "(901)333-6500",
    "website": "http://www.memphiszoo.org",
    "admittancePolicy": "50% discount on admission with reciprocal membership",
    "proofOfResidenceRequired": false,
    "latitude": 35.147663,
    "longitude": -89.976395,
    "discountType": "50-percent",
    "specialNotes": "Email: zooinfo@memphiszoo.org; Contact: Membership - 901-333-6767",
    "type": "aza"
  },
  {
    "id": "mesker-park-zoo-botanic-garden",
    "name": "Mesker Park Zoo & Botanic Garden",
    "address": "1545 Mesker Park Dr",
    "city": "Evansville",
    "state": "IN",
    "country": "USA",
    "zip": "47720-8206",
    "phone": "(812)435-6143",
    "website": "http://www.meskerparkzoo.com",
    "admittancePolicy": "Free admission with reciprocal membership",
    "proofOfResidenceRequired": false,
    "latitude": 37.992151,
    "longitude": -87.603311,
    "discountType": "free",
    "specialNotes": "Email: info@meskerparkzoo.com; Contact: Erin Lonneman - 812-435-6143",
    "type": "aza"
  },
  {
    "id": "miller-park-zoo",
    "name": "Miller Park Zoo",
    "address": "1020 S Morris Ave",
    "city": "Bloomington",
    "state": "IL",
    "country": "USA",
    "zip": "61701-6307",
    "phone": "(309)434-2250",
    "website": "http://www.millerparkzoo.org",
    "admittancePolicy": "Free admission with reciprocal membership",
    "proofOfResidenceRequired": false,
    "latitude": 40.4709,
    "longitude": -89.006374,
    "discountType": "free",
    "specialNotes": "Email: millerparkzoo@cityblm.org; Contact: Stacy Wallin - 309-434-2250",
    "type": "aza"
  },
  {
    "id": "milwaukee-county-zoological-gardens",
    "name": "Milwaukee County Zoological Gardens",
    "address": "10001 W Bluemound Rd",
    "city": "Milwaukee",
    "state": "WI",
    "country": "USA",
    "zip": "53226-4384",
    "phone": "(414)771-3040",
    "website": "http://www.milwaukeezoo.org",
    "admittancePolicy": "Free admission with reciprocal membership",
    "proofOfResidenceRequired": false,
    "latitude": 43.035,
    "longitude": -88.045998,
    "discountType": "free",
    "specialNotes": "Email: milwaukeecountyzoo@milwaukeecountywi.gov; Contact: Membership Dept. - 414-258-2333",
    "type": "aza"
  },
  {
    "id": "minnesota-zoological-garden",
    "name": "Minnesota Zoological Garden",
    "address": "13000 Zoo Blvd",
    "city": "Apple Valley",
    "state": "MN",
    "country": "USA",
    "zip": "55124-8199",
    "phone": "(952)431-9200",
    "website": "http://www.mnzoo.org",
    "admittancePolicy": "50% discount on admission with reciprocal membership",
    "proofOfResidenceRequired": false,
    "latitude": 44.762479,
    "longitude": -93.192268,
    "discountType": "50-percent",
    "specialNotes": "Email: info@mnzoo.org; Contact: Member Services - 952-431-9337",
    "type": "aza"
  },
  {
    "id": "mote-marine-laboratory-aquarium",
    "name": "Mote Marine Laboratory & Aquarium",
    "address": "1600 Ken Thompson Pkwy",
    "city": "Sarasota",
    "state": "FL",
    "country": "USA",
    "zip": "34236-1096",
    "phone": "(941)388-4441",
    "website": "http://www.mote.org/",
    "admittancePolicy": "50% discount on admission with reciprocal membership",
    "proofOfResidenceRequired": false,
    "latitude": 27.332929,
    "longitude": -82.579007,
    "discountType": "50-percent",
    "specialNotes": "Email: info@mote.org; Contact: Betsy Kohl - 941-388-4441 x373",
    "type": "aza"
  },
  {
    "id": "nashville-zoo-inc",
    "name": "Nashville Zoo, Inc.",
    "address": "3777 Nolensville Pike",
    "city": "Nashville",
    "state": "TN",
    "country": "USA",
    "zip": "37211-3324",
    "phone": "(615)833-1534",
    "website": "http://www.nashvillezoo.org",
    "admittancePolicy": "50% discount on admission with reciprocal membership",
    "proofOfResidenceRequired": false,
    "latitude": 36.090562,
    "longitude": -86.734222,
    "discountType": "50-percent",
    "specialNotes": "Email: pr@nashvillezoo.org; Contact: Leon Graves - 615-833-1534",
    "type": "aza"
  },
  {
    "id": "national-aquarium",
    "name": "National Aquarium",
    "address": "501 E Pratt St Pier 3",
    "city": "Baltimore",
    "state": "MD",
    "country": "USA",
    "zip": "21202-3194",
    "phone": "(410)576-3800",
    "website": "http://www.aqua.org",
    "admittancePolicy": "50% discount on admission with reciprocal membership",
    "proofOfResidenceRequired": false,
    "latitude": 39.28669,
    "longitude": -76.608765,
    "discountType": "50-percent",
    "specialNotes": "Email: visit@aqua.org; Contact: Membership Services - 410-576-3833",
    "type": "aza"
  },
  {
    "id": "new-england-aquarium",
    "name": "New England Aquarium",
    "address": "Central Wharf",
    "city": "Boston",
    "state": "MA",
    "country": "USA",
    "zip": "02110-3399",
    "phone": "(617)973-5200",
    "website": "http://www.neaq.org",
    "admittancePolicy": "50% discount on admission with reciprocal membership",
    "proofOfResidenceRequired": false,
    "latitude": 42.359142,
    "longitude": -71.049673,
    "discountType": "50-percent",
    "specialNotes": "Email: comments@neaq.org; Contact: Membership - 617-973-6555",
    "type": "aza"
  },
  {
    "id": "new-york-aquarium",
    "name": "New York Aquarium",
    "address": "602 Surf Ave",
    "city": "Brooklyn",
    "state": "NY",
    "country": "USA",
    "zip": "11224",
    "phone": "(718)265-3400",
    "website": "http://www.nyaquarium.com",
    "admittancePolicy": "50% discount on admission with reciprocal membership",
    "proofOfResidenceRequired": false,
    "latitude": 40.577374,
    "longitude": -73.988708,
    "discountType": "50-percent",
    "specialNotes": "Email: nyageneral@wcs.org; Contact: Membership - 718-741-1818",
    "type": "aza"
  },
  {
    "id": "north-carolina-zoo",
    "name": "North Carolina Zoo",
    "address": "4401 Zoo Pkwy",
    "city": "Asheboro",
    "state": "NC",
    "country": "USA",
    "zip": "27205-1425",
    "phone": "(336)879-7000",
    "website": "http://www.nczoo.org",
    "admittancePolicy": "50% discount on admission with reciprocal membership",
    "proofOfResidenceRequired": false,
    "latitude": 35.634386,
    "longitude": -79.782429,
    "discountType": "50-percent",
    "specialNotes": "Contact: Membership - 336-879-7625",
    "type": "aza"
  },
  {
    "id": "northeastern-wisconsin-new-zoo-adventure-park",
    "name": "Northeastern Wisconsin (NEW) Zoo & Adventure Park",
    "address": "4418 Reforestation Rd",
    "city": "Suamico",
    "state": "WI",
    "country": "USA",
    "zip": "54313-8514",
    "phone": "(920)434-7841",
    "website": "http://www.newzoo.org/",
    "admittancePolicy": "50% discount on admission with reciprocal membership",
    "proofOfResidenceRequired": false,
    "latitude": 44.659363,
    "longitude": -88.090363,
    "discountType": "50-percent",
    "specialNotes": "Email: info@thenewzoo.com; Contact: Rebecca Conard - 920-662-2404",
    "type": "aza"
  },
  {
    "id": "northwest-trek-wildlife-park",
    "name": "Northwest Trek Wildlife Park",
    "address": "11610 Trek Dr E",
    "city": "Eatonville",
    "state": "WA",
    "country": "USA",
    "zip": "98328-9502",
    "phone": "(360)833-6117",
    "website": "http://www.nwtrek.org",
    "admittancePolicy": "50% discount on admission with reciprocal membership",
    "proofOfResidenceRequired": false,
    "latitude": 46.920869,
    "longitude": -122.278614,
    "discountType": "50-percent",
    "specialNotes": "Email: info@nwtrek.org; Contact: KJ Moren - 360-832-7170",
    "type": "aza"
  },
  {
    "id": "oakland-zoo",
    "name": "Oakland Zoo",
    "address": "9777 Golf Links RD",
    "city": "Oakland",
    "state": "CA",
    "country": "USA",
    "zip": "94605-4925",
    "phone": "(510)746-7138",
    "website": "http://www.oaklandzoo.org",
    "admittancePolicy": "50% discount on admission with reciprocal membership",
    "proofOfResidenceRequired": false,
    "latitude": 37.753365,
    "longitude": -122.150085,
    "discountType": "50-percent",
    "specialNotes": "Email: nik@oaklandzoo.org; Contact: Membership Department - 510-632-9525 x160",
    "type": "aza"
  },
  {
    "id": "oglebay-s-good-zoo",
    "name": "Oglebay's Good Zoo",
    "address": "465 Lodge Dr",
    "city": "Wheeling",
    "state": "WV",
    "country": "USA",
    "zip": "26003-1967",
    "phone": "(304)243-4030",
    "website": "http://www.oglebay-resort.com/goodzoo/index.html",
    "admittancePolicy": "Free admission with reciprocal membership",
    "proofOfResidenceRequired": false,
    "latitude": 40.093888,
    "longitude": -80.576271,
    "discountType": "free",
    "specialNotes": "Email: wgreathouse@oglebay.com; Contact: Shawna Cook - 304-243-4122",
    "type": "aza"
  },
  {
    "id": "oklahoma-city-zoo-and-botanical-garden",
    "name": "Oklahoma City Zoo and Botanical Garden",
    "address": "2000 Remington Pl",
    "city": "Oklahoma City",
    "state": "OK",
    "country": "USA",
    "zip": "73111-7103",
    "phone": "(405)424-3344",
    "website": "http://www.okczoo.com",
    "admittancePolicy": "50% discount on admission with reciprocal membership",
    "proofOfResidenceRequired": false,
    "latitude": 35.705735,
    "longitude": -97.458588,
    "discountType": "50-percent",
    "specialNotes": "Email: guestrelations@okczoo.com; Contact: Membership - 405-425-0218",
    "type": "aza"
  },
  {
    "id": "omaha-s-henry-doorly-zoo-aquarium",
    "name": "Omaha's Henry Doorly Zoo & Aquarium",
    "address": "3701 S 10Th St",
    "city": "Omaha",
    "state": "NE",
    "country": "USA",
    "zip": "68107-2299",
    "phone": "(402)733-8401",
    "website": "http://www.omahazoo.com",
    "admittancePolicy": "50% discount on admission with reciprocal membership",
    "proofOfResidenceRequired": false,
    "latitude": 41.224716,
    "longitude": -95.929451,
    "discountType": "50-percent",
    "specialNotes": "Email: member@omahazoo.com; Contact: Membership - 402-738-2097",
    "type": "aza"
  },
  {
    "id": "oregon-zoo",
    "name": "Oregon Zoo",
    "address": "4001 Sw Canyon Rd",
    "city": "Portland",
    "state": "OR",
    "country": "USA",
    "zip": "97221-2705",
    "phone": "(503)226-1561",
    "website": "http://www.oregonzoo.org",
    "admittancePolicy": "50% discount on admission with reciprocal membership",
    "proofOfResidenceRequired": false,
    "latitude": 45.516386,
    "longitude": -122.699486,
    "discountType": "50-percent",
    "specialNotes": "Email: info@oregonzoo.org; Contact: Member Services - 503-226-1561 x5428",
    "type": "aza"
  },
  {
    "id": "palm-beach-zoo",
    "name": "Palm Beach Zoo",
    "address": "1301 Summit Blvd",
    "city": "West Palm Beach",
    "state": "FL",
    "country": "USA",
    "zip": "33405-3035",
    "phone": "(561)533-0887",
    "website": "http://www.palmbeachzoo.org",
    "admittancePolicy": "50% discount on admission with reciprocal membership",
    "proofOfResidenceRequired": false,
    "latitude": 26.665906,
    "longitude": -80.069691,
    "discountType": "50-percent",
    "specialNotes": "Email: Info@palmbeachzoo.org; Contact: Joe Cytacki - 561-533-0887 x216",
    "type": "aza"
  },
  {
    "id": "peoria-zoo",
    "name": "Peoria Zoo",
    "address": "2320 N Prospect Rd",
    "city": "Peoria",
    "state": "IL",
    "country": "USA",
    "zip": "61603-2132",
    "phone": "(309)686-3365",
    "website": "http://www.peoriazoo.org",
    "admittancePolicy": "Free admission with reciprocal membership",
    "proofOfResidenceRequired": false,
    "latitude": 40.718609,
    "longitude": -89.576743,
    "discountType": "free",
    "specialNotes": "Email: info@peoriazoo.org; Contact: Tara Jacobsen - 309-681-3504",
    "type": "aza"
  },
  {
    "id": "philadelphia-zoo",
    "name": "Philadelphia Zoo",
    "address": "3400 W Girard Ave",
    "city": "Philadelphia",
    "state": "PA",
    "country": "USA",
    "zip": "19104-1196",
    "phone": "(215)243-1100",
    "website": "http://www.philadelphiazoo.org",
    "admittancePolicy": "50% discount on admission with reciprocal membership",
    "proofOfResidenceRequired": false,
    "latitude": 39.975151,
    "longitude": -75.194992,
    "discountType": "50-percent",
    "specialNotes": "Email: shearer.amy@phillyzoo.org; Contact: Member Services - 215-243-5226",
    "type": "aza"
  },
  {
    "id": "phoenix-zoo",
    "name": "Phoenix Zoo",
    "address": "455 N Galvin Pkwy",
    "city": "Phoenix",
    "state": "AZ",
    "country": "USA",
    "zip": "85008-3431",
    "phone": "(602)286-3800",
    "website": "http://www.phoenixzoo.org",
    "admittancePolicy": "50% discount on admission with reciprocal membership",
    "proofOfResidenceRequired": false,
    "latitude": 33.453572,
    "longitude": -111.954294,
    "discountType": "50-percent",
    "specialNotes": "Email: zooqna@phoenixzoo.org; Contact: Guest and Member Relations - 602-286-3800",
    "type": "aza"
  },
  {
    "id": "pittsburgh-zoo-aquarium",
    "name": "Pittsburgh Zoo & Aquarium",
    "address": "One Wild Place",
    "city": "Pittsburgh",
    "state": "PA",
    "country": "USA",
    "zip": "15206-1178",
    "phone": "(412)665-3640",
    "website": "http://www.pittsburghzoo.org",
    "admittancePolicy": "50% discount on admission with reciprocal membership",
    "proofOfResidenceRequired": false,
    "latitude": 0,
    "longitude": 0,
    "discountType": "50-percent",
    "specialNotes": "Contact: Member Services - 412-665-3678",
    "type": "aza"
  },
  {
    "id": "point-defiance-zoo-aquarium",
    "name": "Point Defiance Zoo & Aquarium",
    "address": "5400 N Pearl St",
    "city": "Tacoma",
    "state": "WA",
    "country": "USA",
    "zip": "98407-3224",
    "phone": "(253)404-3800",
    "website": "http://www.pdza.org",
    "admittancePolicy": "50% discount on admission with reciprocal membership",
    "proofOfResidenceRequired": false,
    "latitude": 47.301194,
    "longitude": -122.515644,
    "discountType": "50-percent",
    "specialNotes": "Email: comments@pdza.org; Contact: Laura Portalski - 253-404-3635",
    "type": "aza"
  },
  {
    "id": "prospect-park-zoo",
    "name": "Prospect Park Zoo",
    "address": "450 Flatbush Ave",
    "city": "Brooklyn",
    "state": "NY",
    "country": "USA",
    "zip": "11225-3707",
    "phone": "(718)399-7339",
    "website": "http://prospectparkzoo.com/",
    "admittancePolicy": "50% discount on admission with reciprocal membership",
    "proofOfResidenceRequired": false,
    "latitude": 40.663349,
    "longitude": -73.96258,
    "discountType": "50-percent",
    "specialNotes": "Email: prospectparkzoo@wcs.org; Contact: Membership - 718-399-7339",
    "type": "aza"
  },
  {
    "id": "pueblo-zoo",
    "name": "Pueblo Zoo",
    "address": "3455 Nuckolls Ave",
    "city": "Pueblo",
    "state": "CO",
    "country": "USA",
    "zip": "81005-1234",
    "phone": "(719)561-1452",
    "website": "http://www.pueblozoo.org",
    "admittancePolicy": "50% discount on admission with reciprocal membership",
    "proofOfResidenceRequired": false,
    "latitude": 38.26026,
    "longitude": -104.653694,
    "discountType": "50-percent",
    "specialNotes": "Email: info@pueblozoo.org; Contact: Ares Dowd - 719-561-1452 x109",
    "type": "aza"
  },
  {
    "id": "queens-zoo",
    "name": "Queens Zoo",
    "address": "15 Carousel Way",
    "city": "Corona",
    "state": "NY",
    "country": "USA",
    "zip": "11368-4375",
    "phone": "(718)271-1500",
    "website": "http://queenszoo.com/",
    "admittancePolicy": "50% discount on admission with reciprocal membership",
    "proofOfResidenceRequired": false,
    "latitude": 40.749737,
    "longitude": -73.853043,
    "discountType": "50-percent",
    "specialNotes": "Email: qzoogeneral@wcs.org; Contact: Membership - 718-271-7761",
    "type": "aza"
  },
  {
    "id": "racine-zoological-gardens",
    "name": "Racine Zoological Gardens",
    "address": "2131 North Main Street",
    "city": "Racine",
    "state": "WI",
    "country": "USA",
    "zip": "53402",
    "phone": "(262)636-9189",
    "website": "http://www.racinezoo.org",
    "admittancePolicy": "50% discount on admission with reciprocal membership",
    "proofOfResidenceRequired": false,
    "latitude": 42.748158,
    "longitude": -87.784543,
    "discountType": "50-percent",
    "specialNotes": "Email: info@racinezoo.org; Contact: Elizabeth Heidorn - 262-636-9291",
    "type": "aza"
  },
  {
    "id": "red-river-zoo",
    "name": "Red River Zoo",
    "address": "4255 23Rd Ave S",
    "city": "Fargo",
    "state": "ND",
    "country": "USA",
    "zip": "58104-8786",
    "phone": "(701)277-9240",
    "website": "http://www.redriverzoo.org",
    "admittancePolicy": "Free admission with reciprocal membership",
    "proofOfResidenceRequired": false,
    "latitude": 46.793232,
    "longitude": -96.839684,
    "discountType": "free",
    "specialNotes": "Email: thezoo@redriverzoo.org; Contact: Sally Jacobson - 701-277-9240",
    "type": "aza"
  },
  {
    "id": "reid-park-zoo",
    "name": "Reid Park Zoo",
    "address": "1100 S Randolph Way",
    "city": "Tucson",
    "state": "AZ",
    "country": "USA",
    "zip": "85716-5835",
    "phone": "(520)791-3204",
    "website": "www.reidparkzoo.org",
    "admittancePolicy": "50% discount on admission with reciprocal membership",
    "proofOfResidenceRequired": false,
    "latitude": 32.208092,
    "longitude": -110.91798,
    "discountType": "50-percent",
    "specialNotes": "Email: info@reidparkzoo.org; Contact: Membership Dept. - 520-881-4753",
    "type": "aza"
  },
  {
    "id": "riverbanks-zoo-garden",
    "name": "Riverbanks Zoo & Garden",
    "address": "500 Wildlife Pkwy",
    "city": "Columbia",
    "state": "SC",
    "country": "USA",
    "zip": "29210-8014",
    "phone": "(803)779-8717",
    "website": "http://www.riverbanks.org",
    "admittancePolicy": "50% discount on admission with reciprocal membership",
    "proofOfResidenceRequired": false,
    "latitude": 34.011074,
    "longitude": -81.074684,
    "discountType": "50-percent",
    "specialNotes": "Email: tstringfellow@riverbanks.org; Contact: Membership Department - 803-779-8717",
    "type": "aza"
  },
  {
    "id": "roger-williams-park-zoo",
    "name": "Roger Williams Park Zoo",
    "address": "1000 Elmwood Ave",
    "city": "Providence",
    "state": "RI",
    "country": "USA",
    "zip": "02907-3659",
    "phone": "(401)785-3510",
    "website": "http://www.rwpzoo.org",
    "admittancePolicy": "50% discount on admission with reciprocal membership",
    "proofOfResidenceRequired": false,
    "latitude": 41.78553,
    "longitude": -71.419228,
    "discountType": "50-percent",
    "specialNotes": "Email: info@rwpzoo.org; Contact: Elizabeth Grover - 401-785-3510 x375",
    "type": "aza"
  },
  {
    "id": "rosamond-gifford-zoo-at-burnet-park",
    "name": "Rosamond Gifford Zoo at Burnet Park",
    "address": "1 Conservation Pl",
    "city": "Syracuse",
    "state": "NY",
    "country": "USA",
    "zip": "13204-2590",
    "phone": "(315)435-8511",
    "website": "http://www.rosamondgiffordzoo.org",
    "admittancePolicy": "Free admission with reciprocal membership",
    "proofOfResidenceRequired": false,
    "latitude": 43.050816,
    "longitude": -76.177475,
    "discountType": "free",
    "specialNotes": "Email: rgzoo@ongov.net; Contact: Guest Services - 315-435-8511",
    "type": "aza"
  },
  {
    "id": "sacramento-zoo",
    "name": "Sacramento Zoo",
    "address": "3930 W Land Park Dr",
    "city": "Sacramento",
    "state": "CA",
    "country": "USA",
    "zip": "95822-1123",
    "phone": "(916)808-5166",
    "website": "http://www.saczoo.org",
    "admittancePolicy": "50% discount on admission with reciprocal membership",
    "proofOfResidenceRequired": false,
    "latitude": 38.540902,
    "longitude": -121.504625,
    "discountType": "50-percent",
    "specialNotes": "Email: info@saczoo.org; Contact: Membership Department - 916-808-5888",
    "type": "aza"
  },
  {
    "id": "saint-louis-zoo",
    "name": "Saint Louis Zoo",
    "address": "One Government Drive",
    "city": "Saint Louis",
    "state": "MO",
    "country": "USA",
    "zip": "63110-1395",
    "phone": "(314)781-0900",
    "website": "http://www.stlzoo.org",
    "admittancePolicy": "Free to public (discounts may apply in gift shop)",
    "proofOfResidenceRequired": false,
    "latitude": 38.634148,
    "longitude": -90.301376,
    "discountType": "free-public",
    "specialNotes": "Contact: Membership - 314-646-4771",
    "type": "aza"
  },
  {
    "id": "san-antonio-zoological-society",
    "name": "San Antonio Zoological Society",
    "address": "3903 N Saint Marys St",
    "city": "San Antonio",
    "state": "TX",
    "country": "USA",
    "zip": "78212-3199",
    "phone": "(210)734-7184",
    "website": "http://www.sazoo.org",
    "admittancePolicy": "50% discount on admission with reciprocal membership",
    "proofOfResidenceRequired": false,
    "latitude": 29.462071,
    "longitude": -98.473658,
    "discountType": "50-percent",
    "specialNotes": "Email: information@sazoo.org; Contact: Guest Experience Staff - 210-734-7184",
    "type": "aza"
  },
  {
    "id": "san-francisco-zoological-gardens",
    "name": "San Francisco Zoological Gardens",
    "address": "1 Zoo Rd",
    "city": "San Francisco",
    "state": "CA",
    "country": "USA",
    "zip": "94132-1098",
    "phone": "(415)753-7080",
    "website": "http://www.sfzoo.org",
    "admittancePolicy": "50% discount on admission with reciprocal membership",
    "proofOfResidenceRequired": false,
    "latitude": 37.731068,
    "longitude": -122.500465,
    "discountType": "50-percent",
    "specialNotes": "Email: webmaster@sfzoo.org; Contact: Natalie Koenig - natalie@sfzoo.org",
    "type": "aza"
  },
  {
    "id": "santa-ana-zoo",
    "name": "Santa Ana Zoo",
    "address": "1801 E Chestnut Ave",
    "city": "Santa Ana",
    "state": "CA",
    "country": "USA",
    "zip": "92701-5001",
    "phone": "(714)647-6575",
    "website": "http://www.santaanazoo.org",
    "admittancePolicy": "Free admission with reciprocal membership",
    "proofOfResidenceRequired": false,
    "latitude": 33.742061,
    "longitude": -117.844358,
    "discountType": "free",
    "specialNotes": "Contact: Tom Decker - tdecker@fosaz.org",
    "type": "aza"
  },
  {
    "id": "santa-barbara-zoo",
    "name": "Santa Barbara Zoo",
    "address": "500 Ninos DR",
    "city": "Santa Barbara",
    "state": "CA",
    "country": "USA",
    "zip": "93103-3759",
    "phone": "(805)962-5339",
    "website": "http://www.sbzoo.org",
    "admittancePolicy": "50% discount on admission with reciprocal membership",
    "proofOfResidenceRequired": false,
    "latitude": 0,
    "longitude": 0,
    "discountType": "50-percent",
    "specialNotes": "Email: zooinfo@sbzoo.org; Contact: Membership Team - (805) 679-8479",
    "type": "aza"
  },
  {
    "id": "santa-fe-college-teaching-zoo",
    "name": "Santa Fe College Teaching Zoo",
    "address": "3000 Nw 83Rd St",
    "city": "Gainesville",
    "state": "FL",
    "country": "USA",
    "zip": "32606-6200",
    "phone": "(352)395-5601",
    "website": "http://www.sfcollege.edu/zoo",
    "admittancePolicy": "50% discount on admission with reciprocal membership",
    "proofOfResidenceRequired": false,
    "latitude": 29.681252,
    "longitude": -82.430304,
    "discountType": "50-percent",
    "specialNotes": "Email: zoo@sfcollege.edu; Contact: Christina Arnold - 352-395-5633",
    "type": "aza"
  },
  {
    "id": "scovill-zoo",
    "name": "Scovill Zoo",
    "address": "71 S Country Club Rd",
    "city": "Decatur",
    "state": "IL",
    "country": "USA",
    "zip": "62521-4470",
    "phone": "(217)421-7435",
    "website": "http://www.scovillzoo.com",
    "admittancePolicy": "50% discount on admission with reciprocal membership",
    "proofOfResidenceRequired": false,
    "latitude": 39.828248,
    "longitude": -88.90679,
    "discountType": "50-percent",
    "specialNotes": "Email: kfrye@decparks.com; Contact: Julie MacDonna - 217-421-7435",
    "type": "aza"
  },
  {
    "id": "sea-life-arizona-aquarium",
    "name": "SEA LIFE Arizona Aquarium",
    "address": "5000 S Arizona Mills Cir Ste 145",
    "city": "Tempe",
    "state": "AZ",
    "country": "USA",
    "zip": "85282-6416",
    "phone": "(480)478-7600",
    "website": "http://www.visitsealife.com/Arizona/",
    "admittancePolicy": "50% discount on admission with reciprocal membership",
    "proofOfResidenceRequired": false,
    "latitude": 33.379692,
    "longitude": -111.966962,
    "discountType": "50-percent",
    "specialNotes": "Email: arizonasealife@sealifeus.com; Contact: Membership Dept. - arizona@sealifeus.com",
    "type": "aza"
  },
  {
    "id": "sea-life-grapevine-aquarium",
    "name": "SEA LIFE Grapevine Aquarium",
    "address": "3000 Grapevine Mills Pkwy",
    "city": "Grapevine",
    "state": "TX",
    "country": "USA",
    "zip": "76051-2008",
    "phone": "(877)819-7677",
    "website": "http://www.visitsealife.com/Grapevine/",
    "admittancePolicy": "50% discount on admission with reciprocal membership",
    "proofOfResidenceRequired": false,
    "latitude": 32.969174,
    "longitude": -97.044417,
    "discountType": "50-percent",
    "specialNotes": "Contact: Sammy Hughes - sammy.hughes@merlinentertainments.biz",
    "type": "aza"
  },
  {
    "id": "sea-life-kansas-city-aquarium",
    "name": "SEA LIFE Kansas City Aquarium",
    "address": "2475 Grand Blvd",
    "city": "Kansas City",
    "state": "MO",
    "country": "USA",
    "zip": "64108-2659",
    "phone": "(816)471-4386 (245)",
    "website": "http://www.visitsealife.com/kansas-city/",
    "admittancePolicy": "50% discount on admission with reciprocal membership",
    "proofOfResidenceRequired": false,
    "latitude": 39.082811,
    "longitude": -94.581819,
    "discountType": "50-percent",
    "specialNotes": "Email: comments@merlinentertainments.biz; Contact: Member Services - 816-595-1234 x278",
    "type": "aza"
  },
  {
    "id": "sea-life-orlando-aquarium",
    "name": "SEA LIFE Orlando Aquarium",
    "address": "8449 International Dr",
    "city": "Orlando",
    "state": "FL",
    "country": "USA",
    "zip": "32819-9330",
    "phone": "",
    "website": "",
    "admittancePolicy": "50% discount on admission with reciprocal membership",
    "proofOfResidenceRequired": false,
    "latitude": 28.443444,
    "longitude": -81.47043,
    "discountType": "50-percent",
    "specialNotes": "Contact: Merlin Entertainments Orlando Gateway Attractions - orlandoguestservices@merlinentertainments.biz",
    "type": "aza"
  },
  {
    "id": "seaworld-orlando",
    "name": "SeaWorld Orlando",
    "address": "7007 Sea World Dr",
    "city": "Orlando",
    "state": "FL",
    "country": "USA",
    "zip": "32821-8097",
    "phone": "(407)351-3600",
    "website": "http://www.seaworld.org",
    "admittancePolicy": "50% discount on admission with reciprocal membership",
    "proofOfResidenceRequired": false,
    "latitude": 28.385889,
    "longitude": -81.476212,
    "discountType": "50-percent",
    "specialNotes": "Email: shamu@seaworld.org; Contact: Merlin Entertainments Orlando Gateway Attractions - orlandoguestservices@merlinentertainments.biz",
    "type": "aza"
  },
  {
    "id": "seaworld-san-antonio",
    "name": "SeaWorld San Antonio",
    "address": "10500 Sea World Dr",
    "city": "San Antonio",
    "state": "TX",
    "country": "USA",
    "zip": "78251-3002",
    "phone": "(210)523-3000",
    "website": "http://www.seaworld.com",
    "admittancePolicy": "50% discount on admission with reciprocal membership",
    "proofOfResidenceRequired": false,
    "latitude": 29.461172,
    "longitude": -98.697037,
    "discountType": "50-percent",
    "specialNotes": "Email: swt.guestrelations@seaworld.com; Contact: Guest Experience Staff - 210-734-7184",
    "type": "aza"
  },
  {
    "id": "sedgwick-county-zoo",
    "name": "Sedgwick County Zoo",
    "address": "5555 W Zoo Blvd",
    "city": "Wichita",
    "state": "KS",
    "country": "USA",
    "zip": "67212-1698",
    "phone": "(316)660-9453",
    "website": "http://www.scz.org",
    "admittancePolicy": "50% discount on admission with reciprocal membership",
    "proofOfResidenceRequired": false,
    "latitude": 37.722652,
    "longitude": -97.40957,
    "discountType": "50-percent",
    "specialNotes": "Email: ask@scz.org; Contact: Membership Department - 316-660-9453",
    "type": "aza"
  },
  {
    "id": "sequoia-park-zoo",
    "name": "Sequoia Park Zoo",
    "address": "3414 W St",
    "city": "Eureka",
    "state": "CA",
    "country": "USA",
    "zip": "95503-5656",
    "phone": "(707)441-4263",
    "website": "http://www.SequoiaParkZoo.net",
    "admittancePolicy": "50% discount on admission with reciprocal membership",
    "proofOfResidenceRequired": false,
    "latitude": 40.777732,
    "longitude": -124.144392,
    "discountType": "50-percent",
    "specialNotes": "Email: jcampbell-spickler@ci.eureka.ca.gov; Contact: Kathleen Juliano - 707-832-5166",
    "type": "aza"
  },
  {
    "id": "shark-reef-aquarium-at-mandalay-bay",
    "name": "Shark Reef Aquarium at Mandalay Bay",
    "address": "3950 Las Vegas Blvd S",
    "city": "Las Vegas",
    "state": "NV",
    "country": "USA",
    "zip": "89119-1006",
    "phone": "(702)632-4555",
    "website": "http://www.sharkreef.com",
    "admittancePolicy": "50% discount on admission with reciprocal membership",
    "proofOfResidenceRequired": false,
    "latitude": 36.093462,
    "longitude": -115.172881,
    "discountType": "50-percent",
    "specialNotes": "Email: sharkreef@mandalaybay.com; Contact: Guest Relations - 702-632-4555",
    "type": "aza"
  },
  {
    "id": "smithsonian-s-national-zoo-and-conservation-biology-institute",
    "name": "Smithsonian's National Zoo and Conservation Biology Institute",
    "address": "3001 Connecticut Ave Nw",
    "city": "Washington",
    "state": "DC",
    "country": "USA",
    "zip": "20008-2537",
    "phone": "(202)633-4800",
    "website": "http://nationalzoo.si.edu",
    "admittancePolicy": "Free to public (discounts may apply in gift shop)",
    "proofOfResidenceRequired": false,
    "latitude": 38.929043,
    "longitude": -77.054718,
    "discountType": "free-public",
    "specialNotes": "Email: nationalzoo@si.edu; Contact: NZP Membership Office - 202-633-2922",
    "type": "aza"
  },
  {
    "id": "sunset-zoological-park",
    "name": "Sunset Zoological Park",
    "address": "2333 Oak St",
    "city": "Manhattan",
    "state": "KS",
    "country": "USA",
    "zip": "66502-3824",
    "phone": "(785)587-2737",
    "website": "http://www.sunsetzoo.com",
    "admittancePolicy": "Free admission with reciprocal membership",
    "proofOfResidenceRequired": false,
    "latitude": 39.1563,
    "longitude": -96.521263,
    "discountType": "free",
    "specialNotes": "Email: sunsetzoo@cityofmhk.com; Contact: Melinda Schwendemann - 785-587-2737",
    "type": "aza"
  },
  {
    "id": "texas-state-aquarium",
    "name": "Texas State Aquarium",
    "address": "2710 N Shoreline Blvd",
    "city": "Corpus Christi",
    "state": "TX",
    "country": "USA",
    "zip": "78402-1097",
    "phone": "(361)653-2655",
    "website": "http://www.texasstateaquarium.org",
    "admittancePolicy": "50% discount on admission with reciprocal membership",
    "proofOfResidenceRequired": false,
    "latitude": 27.814687,
    "longitude": -97.391981,
    "discountType": "50-percent",
    "specialNotes": "Email: jvela@txstateaq.org; Contact: Marissa Gutierrez - 361-881-1341",
    "type": "aza"
  },
  {
    "id": "the-dallas-world-aquarium",
    "name": "The Dallas World Aquarium",
    "address": "1801 N Griffin St",
    "city": "Dallas",
    "state": "TX",
    "country": "USA",
    "zip": "75202-1503",
    "phone": "(214)720-2224",
    "website": "http://www.dwazoo.com",
    "admittancePolicy": "50% discount on admission with reciprocal membership",
    "proofOfResidenceRequired": false,
    "latitude": 32.78329,
    "longitude": -96.804725,
    "discountType": "50-percent",
    "specialNotes": "Email: info@dwazoo.com; Contact: Karen Miles - 469-554-7431",
    "type": "aza"
  },
  {
    "id": "the-florida-aquarium",
    "name": "The Florida Aquarium",
    "address": "701 Channelside Dr",
    "city": "Tampa",
    "state": "FL",
    "country": "USA",
    "zip": "33602-5614",
    "phone": "(813)273-4000",
    "website": "http://www.flaquarium.org",
    "admittancePolicy": "50% discount on admission with reciprocal membership",
    "proofOfResidenceRequired": false,
    "latitude": 27.94354,
    "longitude": -82.448533,
    "discountType": "50-percent",
    "specialNotes": "Email: membership@flaquarium.org; Contact: Heather Mayo - membership@flaquarium.org",
    "type": "aza"
  },
  {
    "id": "the-wilds",
    "name": "The Wilds",
    "address": "14000 International Rd",
    "city": "Cumberland",
    "state": "OH",
    "country": "USA",
    "zip": "43732-9500",
    "phone": "(740)638-5030",
    "website": "http://www.thewilds.org",
    "admittancePolicy": "50% discount on admission with reciprocal membership",
    "proofOfResidenceRequired": false,
    "latitude": 39.824913,
    "longitude": -81.749512,
    "discountType": "50-percent",
    "specialNotes": "Email: information@thewilds.org; Contact: Membership - 740-638-5030",
    "type": "aza"
  },
  {
    "id": "toledo-zoo-aquarium",
    "name": "Toledo Zoo & Aquarium",
    "address": "2700 Broadway St",
    "city": "Toledo",
    "state": "OH",
    "country": "USA",
    "zip": "43609-3121",
    "phone": "(419)385-5721",
    "website": "http://www.toledozoo.org",
    "admittancePolicy": "50% discount on admission with reciprocal membership",
    "proofOfResidenceRequired": false,
    "latitude": 41.618,
    "longitude": -83.578957,
    "discountType": "50-percent",
    "specialNotes": "Email: communications@toledozoo.org; Contact: Member Services - 419-385-5721 x2038",
    "type": "aza"
  },
  {
    "id": "topeka-zoo",
    "name": "Topeka Zoo",
    "address": "635 Sw Gage Blvd",
    "city": "Topeka",
    "state": "KS",
    "country": "USA",
    "zip": "66606-2066",
    "phone": "(785)368-9180",
    "website": "http://www.topekazoo.org",
    "admittancePolicy": "Free admission with reciprocal membership",
    "proofOfResidenceRequired": false,
    "latitude": 39.057884,
    "longitude": -95.724671,
    "discountType": "free",
    "specialNotes": "Email: help@topekazoo.org; Contact: Becky Knutson - 785-368-9180 x100",
    "type": "aza"
  },
  {
    "id": "toronto-zoo",
    "name": "Toronto Zoo",
    "address": "361A Old Finch Avenue",
    "city": "Toronto",
    "state": "ON",
    "country": "Canada",
    "zip": "M1B 5K7",
    "phone": "(416)392-5909",
    "website": "http://www.torontozoo.com",
    "admittancePolicy": "50% discount on admission with reciprocal membership",
    "proofOfResidenceRequired": false,
    "latitude": 43.8129,
    "longitude": -79.209,
    "discountType": "50-percent",
    "specialNotes": "Email: webmaster@torontozoo.ca; Contact: Guest Relations - 416-392-5929",
    "type": "aza"
  },
  {
    "id": "tracy-aviary",
    "name": "Tracy Aviary",
    "address": "589 E 1300 S",
    "city": "Salt Lake City",
    "state": "UT",
    "country": "USA",
    "zip": "84105-1111",
    "phone": "(801)596-8500",
    "website": "http://www.tracyaviary.org",
    "admittancePolicy": "Free admission with reciprocal membership",
    "proofOfResidenceRequired": false,
    "latitude": 40.741627,
    "longitude": -111.874208,
    "discountType": "free",
    "specialNotes": "Email: info@tracyaviary.org; Contact: Bonny Lahey - 801-596-8500",
    "type": "aza"
  },
  {
    "id": "tulsa-zoo",
    "name": "Tulsa Zoo",
    "address": "6421 E 36Th St N",
    "city": "Tulsa",
    "state": "OK",
    "country": "USA",
    "zip": "74115-2102",
    "phone": "(918)669-6600",
    "website": "http://www.tulsazoo.org",
    "admittancePolicy": "50% discount on admission with reciprocal membership",
    "proofOfResidenceRequired": false,
    "latitude": 36.199196,
    "longitude": -95.908783,
    "discountType": "50-percent",
    "specialNotes": "Email: info@tulsazoo.org; Contact: Member Services - 918-669-6201",
    "type": "aza"
  },
  {
    "id": "utah-s-hogle-zoo",
    "name": "Utah's Hogle Zoo",
    "address": "2600 E Sunnyside Ave",
    "city": "Salt Lake City",
    "state": "UT",
    "country": "USA",
    "zip": "84108-1454",
    "phone": "(801)584-1700",
    "website": "http://www.hoglezoo.org",
    "admittancePolicy": "50% discount on admission with reciprocal membership",
    "proofOfResidenceRequired": false,
    "latitude": 40.750854,
    "longitude": -111.816553,
    "discountType": "50-percent",
    "specialNotes": "Email: contactus@hoglezoo.org; Contact: Guest & Member Services - 801-584-1700",
    "type": "aza"
  },
  {
    "id": "virginia-aquarium-marine-science-center",
    "name": "Virginia Aquarium & Marine Science Center",
    "address": "717 General Booth Blvd",
    "city": "Virginia Beach",
    "state": "VA",
    "country": "USA",
    "zip": "23451-4811",
    "phone": "(757)385-7777",
    "website": "http://www.virginiaaquarium.com/",
    "admittancePolicy": "50% discount on admission with reciprocal membership",
    "proofOfResidenceRequired": false,
    "latitude": 36.82135,
    "longitude": -75.981743,
    "discountType": "50-percent",
    "specialNotes": "Email: marketing@virginiaaquarium.com; Contact: Madeline Bishop - 757-385-0279",
    "type": "aza"
  },
  {
    "id": "virginia-zoological-park",
    "name": "Virginia Zoological Park",
    "address": "3500 Granby St",
    "city": "Norfolk",
    "state": "VA",
    "country": "USA",
    "zip": "23504-1329",
    "phone": "(757)441-2374",
    "website": "http://www.virginiazoo.org",
    "admittancePolicy": "50% discount on admission with reciprocal membership",
    "proofOfResidenceRequired": false,
    "latitude": 36.880249,
    "longitude": -76.282028,
    "discountType": "50-percent",
    "specialNotes": "Email: info@virginiazoo.org; Contact: Guest Services - 757-441-2374 x0",
    "type": "aza"
  },
  {
    "id": "wilder-institute-calgary-zoo",
    "name": "Wilder Institute/Calgary Zoo",
    "address": "1300 Zoo Road NE",
    "city": "Calgary",
    "state": "AB",
    "country": "Canada",
    "zip": "T2E 7V6",
    "phone": "(403)232-9300",
    "website": "http://www.calgaryzoo.com",
    "admittancePolicy": "50% discount on admission with reciprocal membership",
    "proofOfResidenceRequired": false,
    "latitude": 51.0794,
    "longitude": -114.0328,
    "discountType": "50-percent",
    "specialNotes": "Email: guestrelations@calgaryzoo.com; Contact: Guest Services - 403-232-9300 ext 2",
    "type": "aza"
  },
  {
    "id": "woodland-park-zoo",
    "name": "Woodland Park Zoo",
    "address": "5500 Phinney Ave N",
    "city": "Seattle",
    "state": "WA",
    "country": "USA",
    "zip": "98103-5865",
    "phone": "(206)548-2500",
    "website": "http://www.zoo.org",
    "admittancePolicy": "50% discount on admission with reciprocal membership",
    "proofOfResidenceRequired": false,
    "latitude": 47.669798,
    "longitude": -122.354401,
    "discountType": "50-percent",
    "specialNotes": "Email: zooinfo@zoo.org; Contact: Jillian Garcia - 206-548-2425",
    "type": "aza"
  },
  {
    "id": "zoo-atlanta",
    "name": "Zoo Atlanta",
    "address": "800 Cherokee Ave Se",
    "city": "Atlanta",
    "state": "GA",
    "country": "USA",
    "zip": "30315-1470",
    "phone": "(404)624-5600",
    "website": "http://www.zooatlanta.org",
    "admittancePolicy": "50% discount on admission with reciprocal membership",
    "proofOfResidenceRequired": false,
    "latitude": 33.73251,
    "longitude": -84.373634,
    "discountType": "50-percent",
    "specialNotes": "Email: webmaster@zooatlanta.org; Contact: Membership Services - 404-624-5662",
    "type": "aza"
  },
  {
    "id": "zoo-boise",
    "name": "Zoo Boise",
    "address": "355 E Julia Davis Dr",
    "city": "Boise",
    "state": "ID",
    "country": "USA",
    "zip": "83702-7670",
    "phone": "(208)608-7760",
    "website": "http://www.zooboise.org",
    "admittancePolicy": "Free admission with reciprocal membership",
    "proofOfResidenceRequired": false,
    "latitude": 43.609188,
    "longitude": -116.202064,
    "discountType": "free",
    "specialNotes": "Email: zooboise@cityofboise.org; Contact: Morgan Aaron - 208-608-7765",
    "type": "aza"
  },
  {
    "id": "zoo-de-granby",
    "name": "Zoo de Granby",
    "address": "525 Saint-Hubert Street",
    "city": "Granby",
    "state": "QC",
    "country": "Canada",
    "zip": "J2G 5P3",
    "phone": "(450)372-9113",
    "website": "http://www.zoodegranby.com",
    "admittancePolicy": "50% discount on admission with reciprocal membership",
    "proofOfResidenceRequired": false,
    "latitude": 45.4046,
    "longitude": -72.731,
    "discountType": "50-percent",
    "specialNotes": "Email: info@zoodegranby.com; Contact: Mireille Forand - 450-372-9113 x2103",
    "type": "aza"
  },
  {
    "id": "zoo-knoxville",
    "name": "Zoo Knoxville",
    "address": "3500 Knoxville Zoo Dr",
    "city": "Knoxville",
    "state": "TN",
    "country": "USA",
    "zip": "37914-4416",
    "phone": "(865)637-5331 (1167)",
    "website": "http://www.knoxville-zoo.org",
    "admittancePolicy": "50% discount on admission with reciprocal membership",
    "proofOfResidenceRequired": false,
    "latitude": 35.996643,
    "longitude": -83.892838,
    "discountType": "50-percent",
    "specialNotes": "Email: zooknox@zooknoxville.org; Contact: Membership - zkmembership@zooknoxville.org",
    "type": "aza"
  },
  {
    "id": "zoo-miami",
    "name": "Zoo Miami",
    "address": "12400 SW 152nd St / One Zoo Boulevard",
    "city": "Miami",
    "state": "FL",
    "country": "USA",
    "zip": "33177-1402",
    "phone": "(305)251-0400",
    "website": "http://www.zoomiami.org",
    "admittancePolicy": "50% discount on admission with reciprocal membership",
    "proofOfResidenceRequired": false,
    "latitude": 25.596128,
    "longitude": -80.404198,
    "discountType": "50-percent",
    "specialNotes": "Email: info@zoomiami.org; Contact: Carlos Simoes - 305-255-5551",
    "type": "aza"
  },
  {
    "id": "zooamerica-north-american-wildlife-park",
    "name": "ZOOAMERICA North American Wildlife Park",
    "address": "201 Park Ave",
    "city": "Hershey",
    "state": "PA",
    "country": "USA",
    "zip": "17033-2740",
    "phone": "(717)534-3900",
    "website": "http://www.zooamerica.com",
    "admittancePolicy": "50% discount on admission with reciprocal membership",
    "proofOfResidenceRequired": false,
    "latitude": 40.287714,
    "longitude": -76.652228,
    "discountType": "50-percent",
    "specialNotes": "Email: zooamerica@hersheypa.com; Contact: Guest Relations - 717-534-3900",
    "type": "aza"
  },
  {
    "id": "zoomontana",
    "name": "ZooMontana",
    "address": "2100 S Shiloh Rd",
    "city": "Billings",
    "state": "MT",
    "country": "USA",
    "zip": "59106-3908",
    "phone": "(406)652-8100",
    "website": "http://www.zoomontana.org",
    "admittancePolicy": "Free admission with reciprocal membership",
    "proofOfResidenceRequired": false,
    "latitude": 45.732713,
    "longitude": -108.617492,
    "discountType": "free",
    "specialNotes": "Email: zoomt@zoomontana.org; Contact: Jeff Ewelt - 406-652-8100",
    "type": "aza"
  },
  {
    "id": "zootampa-at-lowry-park",
    "name": "ZooTampa at Lowry Park",
    "address": "1101 W Sligh Ave",
    "city": "Tampa",
    "state": "FL",
    "country": "USA",
    "zip": "33604-5958",
    "phone": "(813)935-8552",
    "website": "http://www.lowryparkzoo.org",
    "admittancePolicy": "50% discount on admission with reciprocal membership",
    "proofOfResidenceRequired": false,
    "latitude": 28.010746,
    "longitude": -82.471726,
    "discountType": "50-percent",
    "specialNotes": "Email: info@lowryparkzoo.org; Contact: Tyler Pauley - tyler.pauley@zootampa.org",
    "type": "aza"
  }
]
